[{"UNITID":100654,"NAME":"Alabama A & M University","STREET":"4900 Meridian Street","CITY":"Normal","STATE":"AL","ZIP":"35762","NMCNTY":"Madison County","LAT":34.783368,"LON":-86.568502},{"UNITID":100663,"NAME":"University of Alabama at Birmingham","STREET":"Administration Bldg Suite 1070","CITY":"Birmingham","STATE":"AL","ZIP":"35294-0110","NMCNTY":"Jefferson County","LAT":33.505697,"LON":-86.799345},{"UNITID":100690,"NAME":"Amridge University","STREET":"1200 Taylor Rd","CITY":"Montgomery","STATE":"AL","ZIP":"36117-3553","NMCNTY":"Montgomery County","LAT":32.362609,"LON":-86.17401},{"UNITID":100706,"NAME":"University of Alabama in Huntsville","STREET":"301 Sparkman Dr","CITY":"Huntsville","STATE":"AL","ZIP":"35899","NMCNTY":"Madison County","LAT":34.724557,"LON":-86.640449},{"UNITID":100724,"NAME":"Alabama State University","STREET":"915 S Jackson Street","CITY":"Montgomery","STATE":"AL","ZIP":"36104-0271","NMCNTY":"Montgomery County","LAT":32.364317,"LON":-86.295677},{"UNITID":100733,"NAME":"University of Alabama System Office","STREET":"500 University Blvd. East","CITY":"Tuscaloosa","STATE":"AL","ZIP":"35401","NMCNTY":"Tuscaloosa County","LAT":33.207015,"LON":-87.529594},{"UNITID":100751,"NAME":"The University of Alabama","STREET":"739 University Blvd","CITY":"Tuscaloosa","STATE":"AL","ZIP":"35487-0100","NMCNTY":"Tuscaloosa County","LAT":33.211875,"LON":-87.545978},{"UNITID":100760,"NAME":"Central Alabama Community College","STREET":"1675 Cherokee Rd","CITY":"Alexander City","STATE":"AL","ZIP":"35010","NMCNTY":"Tallapoosa County","LAT":32.92478,"LON":-85.945266},{"UNITID":100812,"NAME":"Athens State University","STREET":"300 N Beaty St","CITY":"Athens","STATE":"AL","ZIP":"35611","NMCNTY":"Limestone County","LAT":34.806793,"LON":-86.964698},{"UNITID":100830,"NAME":"Auburn University at Montgomery","STREET":"7440 East Drive","CITY":"Montgomery","STATE":"AL","ZIP":"36117-3596","NMCNTY":"Montgomery County","LAT":32.36736,"LON":-86.177544},{"UNITID":100858,"NAME":"Auburn University","STREET":"M","CITY":"Auburn","STATE":"AL","ZIP":"36849","NMCNTY":"Lee County","LAT":32.599378,"LON":-85.488258},{"UNITID":100937,"NAME":"Birmingham-Southern College","STREET":"900 Arkadelphia Road","CITY":"Birmingham","STATE":"AL","ZIP":"35254","NMCNTY":"Jefferson County","LAT":33.513774,"LON":-86.850552},{"UNITID":101028,"NAME":"Chattahoochee Valley Community College","STREET":"2602 College Drive","CITY":"Phenix City","STATE":"AL","ZIP":"36869","NMCNTY":"Russell County","LAT":32.42391,"LON":-85.031485},{"UNITID":101116,"NAME":"South University-Montgomery","STREET":"5355 Vaughn Rd","CITY":"Montgomery","STATE":"AL","ZIP":"36116","NMCNTY":"Montgomery County","LAT":32.342684,"LON":-86.216488},{"UNITID":101143,"NAME":"Enterprise State Community College","STREET":"600 Plaza Drive","CITY":"Enterprise","STATE":"AL","ZIP":"36330-1300","NMCNTY":"Coffee County","LAT":31.297496,"LON":-85.836956},{"UNITID":101161,"NAME":"Coastal Alabama Community College","STREET":"1900 U S Highway 31 South","CITY":"Bay Minette","STATE":"AL","ZIP":"36507-2698","NMCNTY":"Baldwin County","LAT":30.851343,"LON":-87.778193},{"UNITID":101189,"NAME":"Faulkner University","STREET":"5345 Atlanta Hwy","CITY":"Montgomery","STATE":"AL","ZIP":"36109-3390","NMCNTY":"Montgomery County","LAT":32.384181,"LON":-86.21641},{"UNITID":101240,"NAME":"Gadsden State Community College","STREET":"1001 George Wallace Dr","CITY":"Gadsden","STATE":"AL","ZIP":"35903","NMCNTY":"Etowah County","LAT":33.994001,"LON":-85.991438},{"UNITID":101277,"NAME":"New Beginning College of Cosmetology","STREET":"421 Martling Road","CITY":"Albertville","STATE":"AL","ZIP":"35951","NMCNTY":"Marshall County","LAT":34.27871,"LON":-86.196931},{"UNITID":101286,"NAME":"George C Wallace Community College-Dothan","STREET":"1141 Wallace Drive","CITY":"Dothan","STATE":"AL","ZIP":"36303-9234","NMCNTY":"Dale County","LAT":31.315274,"LON":-85.465836},{"UNITID":101295,"NAME":"George C Wallace State Community College-Hanceville","STREET":"801 Main St NW","CITY":"Hanceville","STATE":"AL","ZIP":"35077-2000","NMCNTY":"Cullman County","LAT":34.072439,"LON":-86.781935},{"UNITID":101301,"NAME":"George C Wallace State Community College-Selma","STREET":"3000 Earl Goodwin Parkway","CITY":"Selma","STATE":"AL","ZIP":"36703-2808","NMCNTY":"Dallas County","LAT":32.445917,"LON":-87.013294},{"UNITID":101365,"NAME":"Herzing University-Birmingham","STREET":"280 West Valley Ave","CITY":"Birmingham","STATE":"AL","ZIP":"35209","NMCNTY":"Jefferson County","LAT":33.468466,"LON":-86.832465},{"UNITID":101435,"NAME":"Huntingdon College","STREET":"1500 East Fairview Avenue","CITY":"Montgomery","STATE":"AL","ZIP":"36106-2148","NMCNTY":"Montgomery County","LAT":32.351034,"LON":-86.284366},{"UNITID":101453,"NAME":"Heritage Christian University","STREET":"3625 Helton Dr","CITY":"Florence","STATE":"AL","ZIP":"35630-9977","NMCNTY":"Lauderdale County","LAT":34.856153,"LON":-87.663051},{"UNITID":101462,"NAME":"J. F. Drake State Community and Technical College","STREET":"3421 Meridian St N","CITY":"Huntsville","STATE":"AL","ZIP":"35811","NMCNTY":"Madison County","LAT":34.771858,"LON":-86.572885},{"UNITID":101471,"NAME":"J F Ingram State Technical College","STREET":"5375 Ingram Rd","CITY":"Deatsville","STATE":"AL","ZIP":"36022","NMCNTY":"Elmore County","LAT":32.582312,"LON":-86.392369},{"UNITID":101480,"NAME":"Jacksonville State University","STREET":"700 Pelham Road North","CITY":"Jacksonville","STATE":"AL","ZIP":"36265","NMCNTY":"Calhoun County","LAT":33.822938,"LON":-85.765321},{"UNITID":101505,"NAME":"Jefferson State Community College","STREET":"2601 Carson Rd","CITY":"Birmingham","STATE":"AL","ZIP":"35215-3098","NMCNTY":"Jefferson County","LAT":33.652535,"LON":-86.707233},{"UNITID":101514,"NAME":"John C Calhoun State Community College","STREET":"6250 U S Highway 31 N","CITY":"Tanner","STATE":"AL","ZIP":"35671","NMCNTY":"Limestone County","LAT":34.645844,"LON":-86.949674},{"UNITID":101541,"NAME":"Judson College","STREET":"302 Bibb St","CITY":"Marion","STATE":"AL","ZIP":"36756","NMCNTY":"Perry County","LAT":32.629253,"LON":-87.315206},{"UNITID":101569,"NAME":"Lawson State Community College","STREET":"3060 Wilson Rd SW","CITY":"Birmingham","STATE":"AL","ZIP":"35221-1717","NMCNTY":"Jefferson County","LAT":33.450814,"LON":-86.888844},{"UNITID":101587,"NAME":"University of West Alabama","STREET":"Station One","CITY":"Livingston","STATE":"AL","ZIP":"35470","NMCNTY":"Sumter County","LAT":32.588132,"LON":-88.186329},{"UNITID":101602,"NAME":"Lurleen B Wallace Community College","STREET":"1000 Dannelly Blvd.","CITY":"Andalusia","STATE":"AL","ZIP":"36420-1418","NMCNTY":"Covington County","LAT":31.322947,"LON":-86.452262},{"UNITID":101648,"NAME":"Marion Military Institute","STREET":"1101 Washington St","CITY":"Marion","STATE":"AL","ZIP":"36756-3207","NMCNTY":"Perry County","LAT":32.623734,"LON":-87.322041},{"UNITID":101675,"NAME":"Miles College","STREET":"5500 Myron Massey Blvd","CITY":"Fairfield","STATE":"AL","ZIP":"35064-2621","NMCNTY":"Jefferson County","LAT":33.482442,"LON":-86.908751},{"UNITID":101693,"NAME":"University of Mobile","STREET":"5735 College Parkway Drive","CITY":"Mobile","STATE":"AL","ZIP":"36613-2842","NMCNTY":"Mobile County","LAT":30.793247,"LON":-88.128934},{"UNITID":101709,"NAME":"University of Montevallo","STREET":"Station 6001","CITY":"Montevallo","STATE":"AL","ZIP":"35115-6000","NMCNTY":"Shelby County","LAT":33.10625,"LON":-86.865099},{"UNITID":101736,"NAME":"Northwest-Shoals Community College","STREET":"800 George Wallace Blvd","CITY":"Muscle Shoals","STATE":"AL","ZIP":"35661","NMCNTY":"Colbert County","LAT":34.739788,"LON":-87.678089},{"UNITID":101879,"NAME":"University of North Alabama","STREET":"One Harrison Plaza","CITY":"Florence","STATE":"AL","ZIP":"35632-0001","NMCNTY":"Lauderdale County","LAT":34.806738,"LON":-87.681361},{"UNITID":101897,"NAME":"Northeast Alabama Community College","STREET":"138  Highway 35","CITY":"Rainsville","STATE":"AL","ZIP":"35986","NMCNTY":"Jackson County","LAT":34.545471,"LON":-85.911664},{"UNITID":101912,"NAME":"Oakwood University","STREET":"7000 Adventist Blvd NW","CITY":"Huntsville","STATE":"AL","ZIP":"35896","NMCNTY":"Madison County","LAT":34.756344,"LON":-86.652705},{"UNITID":101994,"NAME":"Reid State Technical College","STREET":"100 and Hwy 83","CITY":"Evergreen","STATE":"AL","ZIP":"36401","NMCNTY":"Conecuh County","LAT":31.460265,"LON":-86.964797},{"UNITID":102030,"NAME":"Bishop State Community College","STREET":"351 North Broad Street","CITY":"Mobile","STATE":"AL","ZIP":"36603-5898","NMCNTY":"Mobile County","LAT":30.693972,"LON":-88.056982},{"UNITID":102049,"NAME":"Samford University","STREET":"800 Lakeshore Drive","CITY":"Birmingham","STATE":"AL","ZIP":"35229-2240","NMCNTY":"Jefferson County","LAT":33.464128,"LON":-86.791799},{"UNITID":102058,"NAME":"Selma University","STREET":"1501 Lapsley St, Dinkins Hall","CITY":"Selma","STATE":"AL","ZIP":"36701","NMCNTY":"Dallas County","LAT":32.420387,"LON":-87.032392},{"UNITID":102067,"NAME":"Shelton State Community College","STREET":"9500 Old Greensboro Rd","CITY":"Tuscaloosa","STATE":"AL","ZIP":"35405-8522","NMCNTY":"Tuscaloosa County","LAT":33.120531,"LON":-87.56148},{"UNITID":102076,"NAME":"Snead State Community College","STREET":"102 Elder Street","CITY":"Boaz","STATE":"AL","ZIP":"35957-0734","NMCNTY":"Marshall County","LAT":34.201495,"LON":-86.169897},{"UNITID":102094,"NAME":"University of South Alabama","STREET":"307 N University Blvd","CITY":"Mobile","STATE":"AL","ZIP":"36688-0002","NMCNTY":"Mobile County","LAT":30.696033,"LON":-88.178711},{"UNITID":102234,"NAME":"Spring Hill College","STREET":"4000 Dauphin St","CITY":"Mobile","STATE":"AL","ZIP":"36608-1791","NMCNTY":"Mobile County","LAT":30.694751,"LON":-88.138199},{"UNITID":102270,"NAME":"Stillman College","STREET":"3601 Stillman Boulevard","CITY":"Tuscaloosa","STATE":"AL","ZIP":"35401","NMCNTY":"Tuscaloosa County","LAT":33.200006,"LON":-87.585278},{"UNITID":102298,"NAME":"Talladega College","STREET":"627 West Battle Street","CITY":"Talladega","STATE":"AL","ZIP":"35160","NMCNTY":"Talladega County","LAT":33.433472,"LON":-86.112704},{"UNITID":102313,"NAME":"H Councill Trenholm State Community College","STREET":"1225 Air Base Blvd","CITY":"Montgomery","STATE":"AL","ZIP":"36108-3199","NMCNTY":"Montgomery County","LAT":32.350109,"LON":-86.343057},{"UNITID":102368,"NAME":"Troy University","STREET":"University Avenue","CITY":"Troy","STATE":"AL","ZIP":"36082-0001","NMCNTY":"Pike County","LAT":31.800672,"LON":-85.957094},{"UNITID":10236801,"NAME":"Troy University-Phenix City Campus","STREET":"1510 Whitewater Avenue","CITY":"Phenix City","STATE":"AL","ZIP":"368694419","NMCNTY":"Russell County","LAT":32.474218,"LON":-84.997001},{"UNITID":10236802,"NAME":"Troy University-Montgomery Campus","STREET":"231 Montgomery Street","CITY":"Montgomery","STATE":"AL","ZIP":"361034419","NMCNTY":"Montgomery County","LAT":32.376305,"LON":-86.310895},{"UNITID":10236803,"NAME":"Troy University-Dothan Campus","STREET":"500 University Drive","CITY":"Dothan","STATE":"AL","ZIP":"363034419","NMCNTY":"Houston County","LAT":31.280632,"LON":-85.470866},{"UNITID":10236808,"NAME":"Troy University-Online","STREET":"241 Adams Administration Building","CITY":"Troy","STATE":"AL","ZIP":"360825327","NMCNTY":"Pike County","LAT":31.799583,"LON":-85.95802},{"UNITID":10236809,"NAME":"Troy University-Support Sites","STREET":"100 University Park","CITY":"Troy","STATE":"AL","ZIP":"360825327","NMCNTY":"Pike County","LAT":31.799583,"LON":-85.95802},{"UNITID":102377,"NAME":"Tuskegee University","STREET":"Kresge Center, 3rd Floor","CITY":"Tuskegee","STATE":"AL","ZIP":"36088-1920","NMCNTY":"Macon County","LAT":32.4309,"LON":-85.708492},{"UNITID":102395,"NAME":"United States Sports Academy","STREET":"One Academy Drive","CITY":"Daphne","STATE":"AL","ZIP":"36526-7055","NMCNTY":"Baldwin County","LAT":30.639329,"LON":-87.91163},{"UNITID":102429,"NAME":"Bevill State Community College","STREET":"1411 Indiana Avenue","CITY":"Jasper","STATE":"AL","ZIP":"35501","NMCNTY":"Walker County","LAT":33.836929,"LON":-87.266406},{"UNITID":102553,"NAME":"University of Alaska Anchorage","STREET":"3211 Providence Drive","CITY":"Anchorage","STATE":"AK","ZIP":"99508","NMCNTY":"Anchorage Municipality","LAT":61.190163,"LON":-149.82619},{"UNITID":102580,"NAME":"Alaska Bible College","STREET":"248 E Elmwood Ave","CITY":"Palmer","STATE":"AK","ZIP":"99645","NMCNTY":"Matanuska-Susitna Borough","LAT":61.598553,"LON":-149.111972},{"UNITID":102614,"NAME":"University of Alaska Fairbanks","STREET":"1731 South Chandalar Drive","CITY":"Fairbanks","STATE":"AK","ZIP":"99775","NMCNTY":"Fairbanks North Star Borough","LAT":64.85756,"LON":-147.823146},{"UNITID":102632,"NAME":"University of Alaska Southeast","STREET":"11066 Auke Lake Way","CITY":"Juneau","STATE":"AK","ZIP":"99801-8697","NMCNTY":"Juneau City and Borough","LAT":58.384846,"LON":-134.638255},{"UNITID":102669,"NAME":"Alaska Pacific University","STREET":"4101 University Dr","CITY":"Anchorage","STATE":"AK","ZIP":"99508","NMCNTY":"Anchorage Municipality","LAT":61.190968,"LON":-149.804168},{"UNITID":102711,"NAME":"Alaska Vocational Technical Center","STREET":"PO Box 889","CITY":"Seward","STATE":"AK","ZIP":"99664-0889","NMCNTY":"Kenai Peninsula Borough","LAT":60.110626,"LON":-149.444487},{"UNITID":102845,"NAME":"Charter College","STREET":"17200 S.E. Mill Plain Boulevard, Suite 100","CITY":"Vancouver","STATE":"WA","ZIP":"98683-7575","NMCNTY":"Clark County","LAT":45.617798,"LON":-122.494766},{"UNITID":103501,"NAME":"Alaska Career College","STREET":"1415 E Tudor Road","CITY":"Anchorage","STATE":"AK","ZIP":"99507-1033","NMCNTY":"Anchorage Municipality","LAT":61.181443,"LON":-149.856954},{"UNITID":103529,"NAME":"University of Alaska System of Higher Education","STREET":"910 Yukon Drive, Suite 202 Butrovich Building","CITY":"Fairbanks","STATE":"AK","ZIP":"99775-5000","NMCNTY":"Fairbanks North Star Borough","LAT":64.857516,"LON":-147.848969},{"UNITID":103741,"NAME":"Empire Beauty School-Tucson","STREET":"3030 E Speedway Blvd","CITY":"Tucson","STATE":"AZ","ZIP":"85716","NMCNTY":"Pima County","LAT":32.235657,"LON":-110.927187},{"UNITID":103893,"NAME":"Carrington College-Phoenix North","STREET":"8503 N. 27th Ave.","CITY":"Phoenix","STATE":"AZ","ZIP":"85051-4063","NMCNTY":"Maricopa County","LAT":33.561689,"LON":-112.116105},{"UNITID":103909,"NAME":"Carrington College-Mesa","STREET":"1001 W. Southern Ave., Ste. 130","CITY":"Mesa","STATE":"AZ","ZIP":"85210","NMCNTY":"Maricopa County","LAT":33.39248,"LON":-111.853218},{"UNITID":103927,"NAME":"Carrington College-Tucson","STREET":"201 N. Bonita Ave., Ste. 101","CITY":"Tucson","STATE":"AZ","ZIP":"85745","NMCNTY":"Pima County","LAT":32.224391,"LON":-110.983056},{"UNITID":103945,"NAME":"CollegeAmerica-Flagstaff","STREET":"399 Malpais","CITY":"Flagstaff","STATE":"AZ","ZIP":"86001","NMCNTY":"Coconino County","LAT":35.194495,"LON":-111.657673},{"UNITID":103954,"NAME":"Arizona Academy of Beauty-East","STREET":"5631 E Speedway Blvd","CITY":"Tucson","STATE":"AZ","ZIP":"85712","NMCNTY":"Pima County","LAT":32.237253,"LON":-110.872305},{"UNITID":103963,"NAME":"Platt College-Arizona Automotive Institute Arizona","STREET":"6829 N 46th Ave","CITY":"Glendale","STATE":"AZ","ZIP":"85301-3579","NMCNTY":"Maricopa County","LAT":33.537249,"LON":-112.157344},{"UNITID":104090,"NAME":"Brookline College-Phoenix","STREET":"2445 W. Dunlap Ave., Ste. 100","CITY":"Phoenix","STATE":"AZ","ZIP":"85021","NMCNTY":"Maricopa County","LAT":33.566102,"LON":-112.112473},{"UNITID":104151,"NAME":"Arizona State University-Tempe","STREET":"University Drive and Mill Avenue","CITY":"Tempe","STATE":"AZ","ZIP":"85287","NMCNTY":"Maricopa County","LAT":33.417721,"LON":-111.934383},{"UNITID":104160,"NAME":"Arizona Western College","STREET":"2020 S. Avenue 8E","CITY":"Yuma","STATE":"AZ","ZIP":"85365-8834","NMCNTY":"Yuma County","LAT":32.689306,"LON":-114.495968},{"UNITID":104179,"NAME":"University of Arizona","STREET":"1401 E University","CITY":"Tucson","STATE":"AZ","ZIP":"85721-0066","NMCNTY":"Pima County","LAT":32.232672,"LON":-110.950815},{"UNITID":104188,"NAME":"Southwest University of Visual Arts-Tucson","STREET":"2525 N Country Club Rd","CITY":"Tucson","STATE":"AZ","ZIP":"85716","NMCNTY":"Pima County","LAT":32.252879,"LON":-110.927265},{"UNITID":104346,"NAME":"Central Arizona College","STREET":"8470 N Overfield Rd","CITY":"Coolidge","STATE":"AZ","ZIP":"85128-9030","NMCNTY":"Pinal County","LAT":32.957092,"LON":-111.652501},{"UNITID":104391,"NAME":"Charles of Italy Beauty College","STREET":"1987 McCulloch Blvd, Suite 205","CITY":"Lake Havasu City","STATE":"AZ","ZIP":"86403","NMCNTY":"Mohave County","LAT":34.477485,"LON":-114.332686},{"UNITID":104425,"NAME":"Cochise County Community College District","STREET":"901 N Colombo Ave","CITY":"Sierra Vista","STATE":"AZ","ZIP":"85635-2317","NMCNTY":"Cochise County","LAT":31.564597,"LON":-110.246946},{"UNITID":104434,"NAME":"Empire Beauty School-Flagstaff","STREET":"1790 E Rte 66","CITY":"Flagstaff","STATE":"AZ","ZIP":"86004","NMCNTY":"Coconino County","LAT":35.197151,"LON":-111.625936},{"UNITID":104443,"NAME":"Empire Beauty School-Chandler","STREET":"2978 N Alma School Rd #1-3","CITY":"Chandler","STATE":"AZ","ZIP":"85224","NMCNTY":"Maricopa County","LAT":33.347586,"LON":-111.860423},{"UNITID":104504,"NAME":"Cortiva Institute-Tucson","STREET":"6390 E. Broadway, Suite 100","CITY":"Tucson","STATE":"AZ","ZIP":"85710","NMCNTY":"Pima County","LAT":32.21901,"LON":-110.856785},{"UNITID":104568,"NAME":"Avalon School of Cosmetology-Mesa","STREET":"2111 S Alma School Rd Ste 21","CITY":"Mesa","STATE":"AZ","ZIP":"85210","NMCNTY":"Maricopa County","LAT":33.376583,"LON":-111.858305},{"UNITID":104577,"NAME":"Eastern Arizona College","STREET":"615 N. Stadium Ave.","CITY":"Thatcher","STATE":"AZ","ZIP":"85552-0769","NMCNTY":"Graham County","LAT":32.843664,"LON":-109.76234},{"UNITID":104586,"NAME":"Embry-Riddle Aeronautical University-Prescott","STREET":"3700 Willow Creek Road","CITY":"Prescott","STATE":"AZ","ZIP":"86301-3720","NMCNTY":"Yavapai County","LAT":34.616766,"LON":-112.449741},{"UNITID":104665,"NAME":"School of Architecture at Taliesin","STREET":"12621 N. Frank Lloyd Wright Blvd","CITY":"Scottsdale","STATE":"AZ","ZIP":"85259","NMCNTY":"Maricopa County","LAT":33.607097,"LON":-111.845411},{"UNITID":104708,"NAME":"Glendale Community College","STREET":"6000 W Olive Ave","CITY":"Glendale","STATE":"AZ","ZIP":"85302","NMCNTY":"Maricopa County","LAT":33.570226,"LON":-112.190735},{"UNITID":104717,"NAME":"Grand Canyon University","STREET":"3300 W Camelback Rd","CITY":"Phoenix","STATE":"AZ","ZIP":"85017","NMCNTY":"Maricopa County","LAT":33.513231,"LON":-112.129929},{"UNITID":105136,"NAME":"Maricopa Community College System Office","STREET":"2411 W 14th St","CITY":"Tempe","STATE":"AZ","ZIP":"85281-6942","NMCNTY":"Maricopa County","LAT":33.412915,"LON":-111.975786},{"UNITID":105145,"NAME":"GateWay Community College","STREET":"108 N. 40th Street","CITY":"Phoenix","STATE":"AZ","ZIP":"85034","NMCNTY":"Maricopa County","LAT":33.449686,"LON":-111.997077},{"UNITID":105154,"NAME":"Mesa Community College","STREET":"1833 W Southern Ave","CITY":"Mesa","STATE":"AZ","ZIP":"85202","NMCNTY":"Maricopa County","LAT":33.390323,"LON":-111.871255},{"UNITID":105206,"NAME":"Mohave Community College","STREET":"1971 Jagerson Ave","CITY":"Kingman","STATE":"AZ","ZIP":"86409-1238","NMCNTY":"Mohave County","LAT":35.270996,"LON":-114.029838},{"UNITID":105215,"NAME":"Universal Technical Institute of Arizona Inc-Motorcycle Mechanics Institute Division","STREET":"2844 W Deer Valley Rd","CITY":"Phoenix","STATE":"AZ","ZIP":"85027","NMCNTY":"Maricopa County","LAT":33.684428,"LON":-112.121336},{"UNITID":105297,"NAME":"Dine College","STREET":"Route 12, One Circle Drive","CITY":"Tsaile","STATE":"AZ","ZIP":"86556","NMCNTY":"Apache County","LAT":36.293328,"LON":-109.21684},{"UNITID":105330,"NAME":"Northern Arizona University","STREET":"1900 S Knoles Dr, Babbitt Administrative Center, Room 200","CITY":"Flagstaff","STATE":"AZ","ZIP":"86011-4092","NMCNTY":"Coconino County","LAT":35.188449,"LON":-111.653724},{"UNITID":105349,"NAME":"Northland Pioneer College","STREET":"2251 E. Navajo Blvd.","CITY":"Holbrook","STATE":"AZ","ZIP":"86025-0610","NMCNTY":"Navajo County","LAT":34.93031,"LON":-110.142199},{"UNITID":105367,"NAME":"Ottawa University-Phoenix","STREET":"9414 North 25th Avenue","CITY":"Phoenix","STATE":"AZ","ZIP":"85021","NMCNTY":"Maricopa County","LAT":33.572173,"LON":-112.113001},{"UNITID":105428,"NAME":"Phoenix College","STREET":"1202 W Thomas Rd","CITY":"Phoenix","STATE":"AZ","ZIP":"85013","NMCNTY":"Maricopa County","LAT":33.481361,"LON":-112.088293},{"UNITID":105482,"NAME":"Cortiva Institute-Scottsdale","STREET":"8010 East McDowell Road #214","CITY":"Scottsdale","STATE":"AZ","ZIP":"85257","NMCNTY":"Maricopa County","LAT":33.466153,"LON":-111.90807},{"UNITID":105525,"NAME":"Pima Community College","STREET":"4905C East  Broadway Blvd.","CITY":"Tucson","STATE":"AZ","ZIP":"85709-1275","NMCNTY":"Pima County","LAT":32.222125,"LON":-110.886659},{"UNITID":105534,"NAME":"Pima Medical Institute-Tucson","STREET":"2121 N Craycroft Road, Bldg 1","CITY":"Tucson","STATE":"AZ","ZIP":"85712","NMCNTY":"Pima County","LAT":32.248067,"LON":-110.878783},{"UNITID":105543,"NAME":"Pima Medical Institute-Albuquerque","STREET":"4400 Cutler Avenue NE","CITY":"Albuquerque","STATE":"NM","ZIP":"87110","NMCNTY":"Bernalillo County","LAT":35.104855,"LON":-106.59488},{"UNITID":105589,"NAME":"Prescott College","STREET":"220 Grove Ave","CITY":"Prescott","STATE":"AZ","ZIP":"86301","NMCNTY":"Yavapai County","LAT":34.5452,"LON":-112.477185},{"UNITID":105659,"NAME":"Refrigeration School Inc","STREET":"4210 E Washington Street","CITY":"Phoenix","STATE":"AZ","ZIP":"85034-1816","NMCNTY":"Maricopa County","LAT":33.448692,"LON":-111.989357},{"UNITID":105668,"NAME":"Rio Salado College","STREET":"2323 W 14th St","CITY":"Tempe","STATE":"AZ","ZIP":"85281","NMCNTY":"Maricopa County","LAT":33.413309,"LON":-111.97417},{"UNITID":105677,"NAME":"Roberto-Venn School of Luthiery","STREET":"1012 NW Grand Ave","CITY":"Phoenix","STATE":"AZ","ZIP":"85007","NMCNTY":"Maricopa County","LAT":33.45489,"LON":-112.086161},{"UNITID":105747,"NAME":"Scottsdale Community College","STREET":"9000 E Chaparral Rd","CITY":"Scottsdale","STATE":"AZ","ZIP":"85256","NMCNTY":"Maricopa County","LAT":33.51135,"LON":-111.885186},{"UNITID":105792,"NAME":"South Mountain Community College","STREET":"7050 S 24th St","CITY":"Phoenix","STATE":"AZ","ZIP":"85042","NMCNTY":"Maricopa County","LAT":33.382406,"LON":-112.032635},{"UNITID":105899,"NAME":"Arizona Christian University","STREET":"1 W. Firestorm Way","CITY":"Glendale","STATE":"AZ","ZIP":"85306-3216","NMCNTY":"Maricopa County","LAT":33.622952,"LON":-112.181776},{"UNITID":106041,"NAME":"Universal Technical Institute of Arizona Inc","STREET":"10695 West Pierce Street","CITY":"Avondale","STATE":"AZ","ZIP":"85323","NMCNTY":"Maricopa County","LAT":33.453005,"LON":-112.288123},{"UNITID":106111,"NAME":"Empire Beauty School-NW Phoenix","STREET":"2727 W. Glendale Ave. #200","CITY":"Phoenix","STATE":"AZ","ZIP":"85051","NMCNTY":"Maricopa County","LAT":33.538093,"LON":-112.118168},{"UNITID":106148,"NAME":"Yavapai College","STREET":"1100 E Sheldon St","CITY":"Prescott","STATE":"AZ","ZIP":"86301","NMCNTY":"Yavapai County","LAT":34.547495,"LON":-112.453395},{"UNITID":106245,"NAME":"University of Arkansas at Little Rock","STREET":"2801 S University Ave","CITY":"Little Rock","STATE":"AR","ZIP":"72204","NMCNTY":"Pulaski County","LAT":34.723254,"LON":-92.339778},{"UNITID":106263,"NAME":"University of Arkansas for Medical Sciences","STREET":"4301 W Markham","CITY":"Little Rock","STATE":"AR","ZIP":"72205-7199","NMCNTY":"Pulaski County","LAT":34.749048,"LON":-92.320046},{"UNITID":106306,"NAME":"Arkansas Baptist College","STREET":"1600 Dr. Martin Luther King Jr. Drive","CITY":"Little Rock","STATE":"AR","ZIP":"72202-6068","NMCNTY":"Pulaski County","LAT":34.734751,"LON":-92.290555},{"UNITID":106315,"NAME":"Arkansas Beauty School-Little Rock","STREET":"8521 Geyer Springs Road Unit 30","CITY":"Little Rock","STATE":"AR","ZIP":"72209","NMCNTY":"Pulaski County","LAT":34.672171,"LON":-92.343366},{"UNITID":106324,"NAME":"Arkansas Beauty College","STREET":"109 N Commerce St","CITY":"Russellville","STATE":"AR","ZIP":"72801","NMCNTY":"Pope County","LAT":35.27902,"LON":-93.135369},{"UNITID":106342,"NAME":"Lyon College","STREET":"2300 Highland Road","CITY":"Batesville","STATE":"AR","ZIP":"72501","NMCNTY":"Independence County","LAT":35.777619,"LON":-91.625354},{"UNITID":106351,"NAME":"Arkansas College of Barbering and Hair Design","STREET":"200 E Washington Ave","CITY":"North Little Rock","STATE":"AR","ZIP":"72114","NMCNTY":"Pulaski County","LAT":34.753843,"LON":-92.266429},{"UNITID":10635101,"NAME":"Arkansas College of Barbering and Hair Design","STREET":"9100 Rodney Parham  Suite 101","CITY":"Little Rock","STATE":"AR","ZIP":"722054949","NMCNTY":"Pulaski County","LAT":34.760221,"LON":-92.375875},{"UNITID":106360,"NAME":"Arthur's Beauty College Inc-Fort Smith","STREET":"2000 North B St","CITY":"Fort Smith","STATE":"AR","ZIP":"72901-3342","NMCNTY":"Sebastian County","LAT":35.379955,"LON":-94.410967},{"UNITID":106397,"NAME":"University of Arkansas","STREET":"Administration Bldg 425","CITY":"Fayetteville","STATE":"AR","ZIP":"72701","NMCNTY":"Washington County","LAT":36.070009,"LON":-94.176981},{"UNITID":106412,"NAME":"University of Arkansas at Pine Bluff","STREET":"1200 N University Mail Slot 4789","CITY":"Pine Bluff","STATE":"AR","ZIP":"71601","NMCNTY":"Jefferson County","LAT":34.244031,"LON":-92.018683},{"UNITID":106449,"NAME":"Arkansas State University-Beebe","STREET":"1000 Iowa Street","CITY":"Beebe","STATE":"AR","ZIP":"72012-1000","NMCNTY":"White County","LAT":35.074176,"LON":-91.895351},{"UNITID":106458,"NAME":"Arkansas State University-Main Campus","STREET":"2105 E. Aggie Road","CITY":"Jonesboro","STATE":"AR","ZIP":"72401","NMCNTY":"Craighead County","LAT":35.842388,"LON":-90.679988},{"UNITID":106467,"NAME":"Arkansas Tech University","STREET":"Administration Bldg 200; 1509 N Boulder Ave","CITY":"Russellville","STATE":"AR","ZIP":"72801-2222","NMCNTY":"Pope County","LAT":35.293237,"LON":-93.13562},{"UNITID":106485,"NAME":"University of Arkansas at Monticello","STREET":"Highway 425 South","CITY":"Monticello","STATE":"AR","ZIP":"71656","NMCNTY":"Drew County","LAT":33.590909,"LON":-91.811153},{"UNITID":106494,"NAME":"Arthur's Beauty College Inc-Jacksonville","STREET":"2600 John Harden Dr","CITY":"Jacksonville","STATE":"AR","ZIP":"72076","NMCNTY":"Pulaski County","LAT":34.891572,"LON":-92.102579},{"UNITID":106546,"NAME":"Baptist Health College Little Rock","STREET":"11900 COLONEL GLENN RD STE 1000","CITY":"Little Rock","STATE":"AR","ZIP":"72210-2827","NMCNTY":"Pulaski County","LAT":34.713115,"LON":-92.40692},{"UNITID":106625,"NAME":"Black River Technical College","STREET":"1410 Hwy 304 East","CITY":"Pocahontas","STATE":"AR","ZIP":"72455","NMCNTY":"Randolph County","LAT":36.239793,"LON":-90.951033},{"UNITID":106704,"NAME":"University of Central Arkansas","STREET":"201 Donaghey Ave","CITY":"Conway","STATE":"AR","ZIP":"72035-0001","NMCNTY":"Faulkner County","LAT":35.077945,"LON":-92.457672},{"UNITID":106713,"NAME":"Central Baptist College","STREET":"1501 College Avenue","CITY":"Conway","STATE":"AR","ZIP":"72034","NMCNTY":"Faulkner County","LAT":35.083838,"LON":-92.445021},{"UNITID":106795,"NAME":"Cossatot Community College of the University of Arkansas","STREET":"183 College Drive","CITY":"De Queen","STATE":"AR","ZIP":"71832","NMCNTY":"Sevier County","LAT":34.043389,"LON":-94.3673},{"UNITID":106810,"NAME":"Crowley's Ridge College","STREET":"100 College Dr","CITY":"Paragould","STATE":"AR","ZIP":"72450","NMCNTY":"Greene County","LAT":36.064845,"LON":-90.584395},{"UNITID":106829,"NAME":"Crowley's Ridge Technical Institute","STREET":"1620 Newcastle Road","CITY":"Forrest City","STATE":"AR","ZIP":"72335-0925","NMCNTY":"St. Francis County","LAT":35.039816,"LON":-90.767321},{"UNITID":106883,"NAME":"East Arkansas Community College","STREET":"1700 Newcastle Rd","CITY":"Forrest City","STATE":"AR","ZIP":"72335-2204","NMCNTY":"St. Francis County","LAT":35.041655,"LON":-90.767726},{"UNITID":106892,"NAME":"Eastern College of Health Vocations-Little Rock","STREET":"200 South University Avenue","CITY":"Little Rock","STATE":"AR","ZIP":"72205","NMCNTY":"Pulaski County","LAT":34.75128,"LON":-92.341891},{"UNITID":106908,"NAME":"Imagine-Paul Mitchell Partner School","STREET":"4201 E McCain Blvd","CITY":"North Little Rock","STATE":"AR","ZIP":"72117","NMCNTY":"Pulaski County","LAT":34.789913,"LON":-92.222202},{"UNITID":106980,"NAME":"National Park College","STREET":"101 College Dr","CITY":"Hot Springs","STATE":"AR","ZIP":"71913","NMCNTY":"Garland County","LAT":34.512687,"LON":-93.119248},{"UNITID":106999,"NAME":"University of Arkansas Community College-Batesville","STREET":"2005 White Drive","CITY":"Batesville","STATE":"AR","ZIP":"72503-3350","NMCNTY":"Independence County","LAT":35.792923,"LON":-91.615852},{"UNITID":107044,"NAME":"Harding University","STREET":"915 E. Market Ave.","CITY":"Searcy","STATE":"AR","ZIP":"72149-5615","NMCNTY":"White County","LAT":35.247386,"LON":-91.726143},{"UNITID":10704401,"NAME":"Harding School of Theology","STREET":"1000 Cherry Road","CITY":"Memphis","STATE":"TN","ZIP":"381175499","NMCNTY":"Shelby County","LAT":35.10413,"LON":-89.914472},{"UNITID":107071,"NAME":"Henderson State University","STREET":"1100 Henderson Street","CITY":"Arkadelphia","STATE":"AR","ZIP":"71999-0001","NMCNTY":"Clark County","LAT":34.128155,"LON":-93.059703},{"UNITID":107080,"NAME":"Hendrix College","STREET":"1600 Washington Ave","CITY":"Conway","STATE":"AR","ZIP":"72032-3080","NMCNTY":"Faulkner County","LAT":35.101565,"LON":-92.443256},{"UNITID":107099,"NAME":"Hot Springs Beauty College","STREET":"100 Cones Rd","CITY":"Hot Springs","STATE":"AR","ZIP":"71901","NMCNTY":"Garland County","LAT":34.496057,"LON":-93.037277},{"UNITID":107123,"NAME":"Jefferson Regional Medical Center School of Nursing","STREET":"1600 West 40th Avenue","CITY":"Pine Bluff","STATE":"AR","ZIP":"71603","NMCNTY":"Jefferson County","LAT":34.187831,"LON":-92.018045},{"UNITID":107141,"NAME":"John Brown University","STREET":"2000 W University St","CITY":"Siloam Springs","STATE":"AR","ZIP":"72761","NMCNTY":"Benton County","LAT":36.189812,"LON":-94.560283},{"UNITID":107220,"NAME":"Career Academy of Hair Design","STREET":"346 E. Robinson Ave","CITY":"Springdale","STATE":"AR","ZIP":"72764-7128","NMCNTY":"Washington County","LAT":36.167605,"LON":-94.12947},{"UNITID":10722001,"NAME":"Career Academy of Hair Design-Siloam Springs","STREET":"821 S Mount Olive","CITY":"Siloam Springs","STATE":"AR","ZIP":"727614217","NMCNTY":"Benton County","LAT":36.177258,"LON":-94.540615},{"UNITID":10722002,"NAME":"Career Academy of Hair Design-Rogers","STREET":"2100 W. Hudson Rd Ste 10","CITY":"Rogers","STATE":"AR","ZIP":"727562102","NMCNTY":"Benton County","LAT":36.355054,"LON":-94.146999},{"UNITID":10722003,"NAME":"Career Academy of Hair Design-Fayetteville","STREET":"4310 W Martin Luther King Blvd","CITY":"Fayetteville","STATE":"AR","ZIP":"727014217","NMCNTY":"Washington County","LAT":36.047638,"LON":-94.222921},{"UNITID":10722004,"NAME":"Career Academy of Hair Design - Fort Smith","STREET":"1000 Phoenix Avenue","CITY":"Fort Smith","STATE":"AR","ZIP":"729017814","NMCNTY":"Sebastian County","LAT":35.338814,"LON":-94.423905},{"UNITID":107293,"NAME":"Academy of Salon and Spa","STREET":"311 S 16th St","CITY":"Fort Smith","STATE":"AR","ZIP":"72901","NMCNTY":"Sebastian County","LAT":35.38097,"LON":-94.41616},{"UNITID":107318,"NAME":"Arkansas State University Mid-South","STREET":"2000 W.  Broadway","CITY":"West Memphis","STATE":"AR","ZIP":"72301-3829","NMCNTY":"Crittenden County","LAT":35.145736,"LON":-90.22285},{"UNITID":107327,"NAME":"Arkansas Northeastern College","STREET":"2501 S Division","CITY":"Blytheville","STATE":"AR","ZIP":"72316-1109","NMCNTY":"Mississippi County","LAT":35.898597,"LON":-89.921005},{"UNITID":107442,"NAME":"New Tyler Barber College Inc","STREET":"1221 E 7th St","CITY":"North Little Rock","STATE":"AR","ZIP":"72114-4973","NMCNTY":"Pulaski County","LAT":34.760085,"LON":-92.254171},{"UNITID":107460,"NAME":"North Arkansas College","STREET":"1515 Pioneer Dr","CITY":"Harrison","STATE":"AR","ZIP":"72601-5508","NMCNTY":"Boone County","LAT":36.219909,"LON":-93.08844},{"UNITID":107488,"NAME":"Northwest Technical Institute","STREET":"709 S Old Missouri Rd","CITY":"Springdale","STATE":"AR","ZIP":"72764","NMCNTY":"Washington County","LAT":36.178032,"LON":-94.115346},{"UNITID":107512,"NAME":"Ouachita Baptist University","STREET":"410 Ouachita St","CITY":"Arkadelphia","STATE":"AR","ZIP":"71998-0001","NMCNTY":"Clark County","LAT":34.126093,"LON":-93.052471},{"UNITID":107521,"NAME":"Arkansas State University Three Rivers","STREET":"One College Circle","CITY":"Malvern","STATE":"AR","ZIP":"72104-0816","NMCNTY":"Hot Spring County","LAT":34.378745,"LON":-92.821416},{"UNITID":107549,"NAME":"Ozarka College","STREET":"218 College Dr","CITY":"Melbourne","STATE":"AR","ZIP":"72556-0010","NMCNTY":"Izard County","LAT":36.053031,"LON":-91.896355},{"UNITID":107558,"NAME":"University of the Ozarks","STREET":"415 N College Ave","CITY":"Clarksville","STATE":"AR","ZIP":"72830","NMCNTY":"Johnson County","LAT":35.476278,"LON":-93.467221},{"UNITID":107585,"NAME":"University of Arkansas Community College-Morrilton","STREET":"1537 University Blvd.","CITY":"Morrilton","STATE":"AR","ZIP":"72110","NMCNTY":"Conway County","LAT":35.172136,"LON":-92.728507},{"UNITID":107600,"NAME":"Philander Smith College","STREET":"900 W. Daisy Bates Drive","CITY":"Little Rock","STATE":"AR","ZIP":"72202-3799","NMCNTY":"Pulaski County","LAT":34.737131,"LON":-92.283015},{"UNITID":107619,"NAME":"Phillips Community College of the University of Arkansas","STREET":"1000 Campus Drive","CITY":"Helena","STATE":"AR","ZIP":"72342-0785","NMCNTY":"Phillips County","LAT":34.546155,"LON":-90.616884},{"UNITID":107637,"NAME":"Southeast Arkansas College","STREET":"1900 S Hazel Street","CITY":"Pine Bluff","STATE":"AR","ZIP":"71603","NMCNTY":"Jefferson County","LAT":34.210309,"LON":-92.025936},{"UNITID":107655,"NAME":"Professional Cosmetology Education Center","STREET":"460 North Washington","CITY":"El Dorado","STATE":"AR","ZIP":"71730-4009","NMCNTY":"Union County","LAT":33.216032,"LON":-92.664101},{"UNITID":107664,"NAME":"University of Arkansas-Pulaski Technical College","STREET":"3000 W Scenic Dr","CITY":"North Little Rock","STATE":"AR","ZIP":"72118-3347","NMCNTY":"Pulaski County","LAT":34.782783,"LON":-92.299184},{"UNITID":107725,"NAME":"University of Arknsas Hope-Texarkana","STREET":"2500 S Main","CITY":"Hope","STATE":"AR","ZIP":"71801","NMCNTY":"Hempstead County","LAT":33.641665,"LON":-93.596762},{"UNITID":10772501,"NAME":"University of Arkansas Community College at Hope - Texarkana","STREET":"3501 U of A Way","CITY":"Texarkana","STATE":"AR","ZIP":"718541467","NMCNTY":"Miller County","LAT":33.474797,"LON":-94.004275},{"UNITID":107743,"NAME":"University of Arkansas Community College Rich Mountain","STREET":"1100 College Dr","CITY":"Mena","STATE":"AR","ZIP":"71953","NMCNTY":"Polk County","LAT":34.591449,"LON":-94.219799},{"UNITID":107789,"NAME":"Paul Mitchell the School-Arkansas","STREET":"4156 N Steele Blvd","CITY":"Fayetteville","STATE":"AR","ZIP":"72703","NMCNTY":"Washington County","LAT":36.126373,"LON":-94.153892},{"UNITID":107831,"NAME":"Searcy Beauty College","STREET":"1004 S Main St","CITY":"Searcy","STATE":"AR","ZIP":"72143","NMCNTY":"White County","LAT":35.239148,"LON":-91.735135},{"UNITID":107840,"NAME":"Shorter College","STREET":"604 Locust St","CITY":"N Little Rock","STATE":"AR","ZIP":"72114","NMCNTY":"Pulaski County","LAT":34.75933,"LON":-92.261331},{"UNITID":107877,"NAME":"Williams Baptist University","STREET":"60 W Fulbright Avenue","CITY":"Walnut Ridge","STATE":"AR","ZIP":"72476","NMCNTY":"Lawrence County","LAT":36.125676,"LON":-90.940277},{"UNITID":107974,"NAME":"South Arkansas Community College","STREET":"300 S West Ave","CITY":"El Dorado","STATE":"AR","ZIP":"71731-7010","NMCNTY":"Union County","LAT":33.209446,"LON":-92.666087},{"UNITID":107983,"NAME":"Southern Arkansas University Main Campus","STREET":"100 E. University","CITY":"Magnolia","STATE":"AR","ZIP":"71753","NMCNTY":"Columbia County","LAT":33.291618,"LON":-93.235922},{"UNITID":107992,"NAME":"Southern Arkansas University Tech","STREET":"6415 Spellman Road","CITY":"Camden","STATE":"AR","ZIP":"71701-1906","NMCNTY":"Calhoun County","LAT":33.628367,"LON":-92.721629},{"UNITID":108056,"NAME":"University of Arkansas System Office","STREET":"2404 N University","CITY":"Little Rock","STATE":"AR","ZIP":"72207-3608","NMCNTY":"Pulaski County","LAT":34.775989,"LON":-92.343714},{"UNITID":108065,"NAME":"Velvatex College of Beauty Culture","STREET":"1520 Martin Luther King Dr","CITY":"Little Rock","STATE":"AR","ZIP":"72202-5452","NMCNTY":"Pulaski County","LAT":34.735685,"LON":-92.289597},{"UNITID":108092,"NAME":"University of Arkansas-Fort Smith","STREET":"5210 Grand Ave","CITY":"Fort Smith","STATE":"AR","ZIP":"72913-3649","NMCNTY":"Sebastian County","LAT":35.384184,"LON":-94.373729},{"UNITID":108232,"NAME":"Academy of Art University","STREET":"79 New Montgomery","CITY":"San Francisco","STATE":"CA","ZIP":"94105","NMCNTY":"San Francisco County","LAT":37.787943,"LON":-122.400578},{"UNITID":108269,"NAME":"Academy of Chinese Culture and Health Sciences","STREET":"1600 Broadway, Ste. 200","CITY":"Oakland","STATE":"CA","ZIP":"94612","NMCNTY":"Alameda County","LAT":37.805972,"LON":-122.269839},{"UNITID":108348,"NAME":"The Academy of Radio and TV Broadcasting","STREET":"16052 Beach Blvd St 263n","CITY":"Huntington Beach","STATE":"CA","ZIP":"92647","NMCNTY":"Orange County","LAT":33.729535,"LON":-117.987762},{"UNITID":108649,"NAME":"Avalon School of Cosmetology-Alameda","STREET":"2318 Central Avenue","CITY":"Alameda","STATE":"CA","ZIP":"94501","NMCNTY":"Alameda County","LAT":37.764203,"LON":-122.243566},{"UNITID":108667,"NAME":"College of Alameda","STREET":"555 Ralph Appezzato Memorial Pky","CITY":"Alameda","STATE":"CA","ZIP":"94501","NMCNTY":"Alameda County","LAT":37.781017,"LON":-122.279303},{"UNITID":108807,"NAME":"Allan Hancock College","STREET":"800 South College Drive","CITY":"Santa Maria","STATE":"CA","ZIP":"93454-6399","NMCNTY":"Santa Barbara County","LAT":34.943716,"LON":-120.421144},{"UNITID":108852,"NAME":"American Academy of Dramatic Arts-Los Angeles","STREET":"1336 North La Brea Avenue","CITY":"Los Angeles","STATE":"CA","ZIP":"90028","NMCNTY":"Los Angeles County","LAT":34.095378,"LON":-118.343701},{"UNITID":108861,"NAME":"American Baptist Seminary of the West","STREET":"2606 Dwight Way","CITY":"Berkeley","STATE":"CA","ZIP":"94704-3029","NMCNTY":"Alameda County","LAT":37.865252,"LON":-122.256149},{"UNITID":108870,"NAME":"American Film Institute Conservatory","STREET":"2021 N Western Ave","CITY":"Los Angeles","STATE":"CA","ZIP":"90027-1625","NMCNTY":"Los Angeles County","LAT":34.10767,"LON":-118.310018},{"UNITID":108977,"NAME":"American Beauty College","STREET":"646 S. Sunset Ave","CITY":"West Covina","STATE":"CA","ZIP":"91790","NMCNTY":"Los Angeles County","LAT":34.069367,"LON":-117.936959},{"UNITID":109040,"NAME":"American Career College-Los Angeles","STREET":"4021 Rosewood Avenue","CITY":"Los Angeles","STATE":"CA","ZIP":"90004","NMCNTY":"Los Angeles County","LAT":34.079323,"LON":-118.292481},{"UNITID":109086,"NAME":"American Conservatory Theater","STREET":"30 Grant Ave","CITY":"San Francisco","STATE":"CA","ZIP":"94108-5834","NMCNTY":"San Francisco County","LAT":37.787343,"LON":-122.40475},{"UNITID":109208,"NAME":"American River College","STREET":"4700 College Oak Dr","CITY":"Sacramento","STATE":"CA","ZIP":"95841-4286","NMCNTY":"Sacramento County","LAT":38.65085,"LON":-121.349672},{"UNITID":109350,"NAME":"Antelope Valley College","STREET":"3041 West  Ave K","CITY":"Lancaster","STATE":"CA","ZIP":"93536-5426","NMCNTY":"Los Angeles County","LAT":34.676207,"LON":-118.186166},{"UNITID":109651,"NAME":"Art Center College of Design","STREET":"1700 Lida St","CITY":"Pasadena","STATE":"CA","ZIP":"91103","NMCNTY":"Los Angeles County","LAT":34.169031,"LON":-118.185102},{"UNITID":109721,"NAME":"Associated Technical College-Los Angeles","STREET":"1670 Wilshire Blvd","CITY":"Los Angeles","STATE":"CA","ZIP":"90017-1604","NMCNTY":"Los Angeles County","LAT":34.056102,"LON":-118.272364},{"UNITID":109730,"NAME":"Associated Technical College-San Diego","STREET":"707 Broadway-Ste 300","CITY":"San Diego","STATE":"CA","ZIP":"92101","NMCNTY":"San Diego County","LAT":32.715375,"LON":-117.157988},{"UNITID":109785,"NAME":"Azusa Pacific University","STREET":"901 E Alosta","CITY":"Azusa","STATE":"CA","ZIP":"91702-7000","NMCNTY":"Los Angeles County","LAT":34.130047,"LON":-117.888375},{"UNITID":109819,"NAME":"Bakersfield College","STREET":"1801 Panorama Dr","CITY":"Bakersfield","STATE":"CA","ZIP":"93305-1299","NMCNTY":"Kern County","LAT":35.40911,"LON":-118.973753},{"UNITID":109907,"NAME":"Barstow Community College","STREET":"2700 Barstow Road","CITY":"Barstow","STATE":"CA","ZIP":"92311","NMCNTY":"San Bernardino County","LAT":34.870285,"LON":-117.023412},{"UNITID":109934,"NAME":"Bellus Academy-Chula Vista","STREET":"970 Broadway, Suite 110","CITY":"Chula Vista","STATE":"CA","ZIP":"91911","NMCNTY":"San Diego County","LAT":32.614773,"LON":-117.083738},{"UNITID":110060,"NAME":"Bethesda University","STREET":"730 N. Euclid St","CITY":"Anaheim","STATE":"CA","ZIP":"92801","NMCNTY":"Orange County","LAT":33.842295,"LON":-117.941323},{"UNITID":110097,"NAME":"Biola University","STREET":"13800 Biola Ave","CITY":"La Mirada","STATE":"CA","ZIP":"90639-0001","NMCNTY":"Los Angeles County","LAT":33.906203,"LON":-118.014374},{"UNITID":110194,"NAME":"Brownson Technical School","STREET":"1110 Technology Cir Ste D","CITY":"Anaheim","STATE":"CA","ZIP":"92805","NMCNTY":"Orange County","LAT":33.819032,"LON":-117.905774},{"UNITID":110219,"NAME":"Bryan University","STREET":"350 W Washington St","CITY":"Tempe","STATE":"AZ","ZIP":"85281","NMCNTY":"Maricopa County","LAT":33.437779,"LON":-111.944197},{"UNITID":110246,"NAME":"Butte College","STREET":"3536 Butte Campus Drive","CITY":"Oroville","STATE":"CA","ZIP":"95965-8399","NMCNTY":"Butte County","LAT":39.649782,"LON":-121.644831},{"UNITID":110316,"NAME":"California Institute of Integral Studies","STREET":"1453 Mission Street","CITY":"San Francisco","STATE":"CA","ZIP":"94103","NMCNTY":"San Francisco County","LAT":37.774924,"LON":-122.416102},{"UNITID":110334,"NAME":"Cabrillo College","STREET":"6500 Soquel Dr","CITY":"Aptos","STATE":"CA","ZIP":"95003","NMCNTY":"Santa Cruz County","LAT":36.989448,"LON":-121.924797},{"UNITID":110361,"NAME":"California Baptist University","STREET":"8432 Magnolia Ave","CITY":"Riverside","STATE":"CA","ZIP":"92504-3297","NMCNTY":"Riverside County","LAT":33.929321,"LON":-117.425619},{"UNITID":110370,"NAME":"California College of the Arts","STREET":"1111 Eighth Street","CITY":"San Francisco","STATE":"CA","ZIP":"94107-2247","NMCNTY":"San Francisco County","LAT":37.767485,"LON":-122.399451},{"UNITID":110398,"NAME":"University of California-Hastings College of Law","STREET":"200 McAllister Street","CITY":"San Francisco","STATE":"CA","ZIP":"94102-4978","NMCNTY":"San Francisco County","LAT":37.781137,"LON":-122.4157},{"UNITID":110404,"NAME":"California Institute of Technology","STREET":"1200 E California Blvd","CITY":"Pasadena","STATE":"CA","ZIP":"91125","NMCNTY":"Los Angeles County","LAT":34.137349,"LON":-118.125878},{"UNITID":110413,"NAME":"California Lutheran University","STREET":"60 W Olsen Rd","CITY":"Thousand Oaks","STATE":"CA","ZIP":"91360-2787","NMCNTY":"Ventura County","LAT":34.224566,"LON":-118.878924},{"UNITID":110422,"NAME":"California Polytechnic State University-San Luis Obispo","STREET":"1 Grand Ave.","CITY":"San Luis Obispo","STATE":"CA","ZIP":"93407","NMCNTY":"San Luis Obispo County","LAT":35.299513,"LON":-120.657311},{"UNITID":110468,"NAME":"Alliant International University-San Diego","STREET":"10455 Pomerado Road","CITY":"San Diego","STATE":"CA","ZIP":"92131","NMCNTY":"San Diego County","LAT":32.897056,"LON":-117.094398},{"UNITID":11046801,"NAME":"Alliant International University-Fresno","STREET":"5130 East Clinton Way","CITY":"Fresno","STATE":"CA","ZIP":"937272014","NMCNTY":"Fresno County","LAT":36.766789,"LON":-119.721681},{"UNITID":11046802,"NAME":"Alliant International University-Los Angeles","STREET":"1000 South Fremont Ave, #5","CITY":"Alhambra","STATE":"CA","ZIP":"918031221","NMCNTY":"Los Angeles County","LAT":34.081723,"LON":-118.150013},{"UNITID":11046803,"NAME":"Alliant International University-San Francisco","STREET":"1475 66th Street","CITY":"Emeryville","STATE":"CA","ZIP":"946081221","NMCNTY":"Alameda County","LAT":37.847164,"LON":-122.2932},{"UNITID":11046804,"NAME":"Alliant International University-Irvine","STREET":"Jamboree Business Center, 2855 Michelle Drive, Suite 300","CITY":"Irvine","STATE":"CA","ZIP":"926061221","NMCNTY":"Orange County","LAT":33.719624,"LON":-117.798177},{"UNITID":11046805,"NAME":"Alliant International University-Sacramento","STREET":"2030 West El Camino Ave., Suite 200","CITY":"Sacramento","STATE":"CA","ZIP":"958331221","NMCNTY":"Sacramento County","LAT":38.613615,"LON":-121.509313},{"UNITID":11046806,"NAME":"SAN FRANCISCO LAW SCHOOL","STREET":"1475 66th Street","CITY":"Emeryville","STATE":"CA","ZIP":"94608","NMCNTY":"Alameda County","LAT":37.847164,"LON":-122.2932},{"UNITID":110486,"NAME":"California State University-Bakersfield","STREET":"9001 Stockdale Hwy","CITY":"Bakersfield","STATE":"CA","ZIP":"93311-1099","NMCNTY":"Kern County","LAT":35.350005,"LON":-119.104711},{"UNITID":110495,"NAME":"California State University-Stanislaus","STREET":"One University Circle","CITY":"Turlock","STATE":"CA","ZIP":"95382-0299","NMCNTY":"Stanislaus County","LAT":37.52577,"LON":-120.852511},{"UNITID":110501,"NAME":"California State University-Chancellors Office","STREET":"Institutional Research & Analyses 401 Golden Shore, 6th Floor","CITY":"Long Beach","STATE":"CA","ZIP":"90802-4210","NMCNTY":"Los Angeles County","LAT":33.764338,"LON":-118.201255},{"UNITID":110510,"NAME":"California State University-San Bernardino","STREET":"5500 University Parkway","CITY":"San Bernardino","STATE":"CA","ZIP":"92407-2393","NMCNTY":"San Bernardino County","LAT":34.182622,"LON":-117.323801},{"UNITID":110529,"NAME":"California State Polytechnic University-Pomona","STREET":"3801 West Temple Avenue","CITY":"Pomona","STATE":"CA","ZIP":"91768","NMCNTY":"Los Angeles County","LAT":34.057912,"LON":-117.821476},{"UNITID":110538,"NAME":"California State University-Chico","STREET":"First and Normal Sts","CITY":"Chico","STATE":"CA","ZIP":"95929-0150","NMCNTY":"Butte County","LAT":39.729712,"LON":-121.844859},{"UNITID":110547,"NAME":"California State University-Dominguez Hills","STREET":"1000 E Victoria St","CITY":"Carson","STATE":"CA","ZIP":"90747-0005","NMCNTY":"Los Angeles County","LAT":33.864766,"LON":-118.255917},{"UNITID":110556,"NAME":"California State University-Fresno","STREET":"5241 N Maple Ave","CITY":"Fresno","STATE":"CA","ZIP":"93740","NMCNTY":"Fresno County","LAT":36.811154,"LON":-119.744569},{"UNITID":110565,"NAME":"California State University-Fullerton","STREET":"800 N State College Blvd","CITY":"Fullerton","STATE":"CA","ZIP":"92831-3599","NMCNTY":"Orange County","LAT":33.881506,"LON":-117.885446},{"UNITID":110574,"NAME":"California State University-East Bay","STREET":"25800 Carlos Bee Blvd","CITY":"Hayward","STATE":"CA","ZIP":"94542","NMCNTY":"Alameda County","LAT":37.657694,"LON":-122.054135},{"UNITID":110583,"NAME":"California State University-Long Beach","STREET":"1250 Bellflower Blvd","CITY":"Long Beach","STATE":"CA","ZIP":"90840-0115","NMCNTY":"Los Angeles County","LAT":33.782818,"LON":-118.11204},{"UNITID":110592,"NAME":"California State University-Los Angeles","STREET":"5151 State University Dr","CITY":"Los Angeles","STATE":"CA","ZIP":"90032-8506","NMCNTY":"Los Angeles County","LAT":34.066927,"LON":-118.168965},{"UNITID":110608,"NAME":"California State University-Northridge","STREET":"18111 Nordhoff St","CITY":"Northridge","STATE":"CA","ZIP":"91330","NMCNTY":"Los Angeles County","LAT":34.240126,"LON":-118.529319},{"UNITID":110617,"NAME":"California State University-Sacramento","STREET":"6000 J St","CITY":"Sacramento","STATE":"CA","ZIP":"95819-2694","NMCNTY":"Sacramento County","LAT":38.559415,"LON":-121.423549},{"UNITID":110635,"NAME":"University of California-Berkeley","STREET":"200 California Hall","CITY":"Berkeley","STATE":"CA","ZIP":"94720","NMCNTY":"Alameda County","LAT":37.871918,"LON":-122.260463},{"UNITID":110644,"NAME":"University of California-Davis","STREET":"One Shields Avenue","CITY":"Davis","STATE":"CA","ZIP":"95616-8678","NMCNTY":"Yolo County","LAT":38.539667,"LON":-121.749567},{"UNITID":110653,"NAME":"University of California-Irvine","STREET":"501 Aldrich Hall","CITY":"Irvine","STATE":"CA","ZIP":"92697","NMCNTY":"Orange County","LAT":33.648434,"LON":-117.841248},{"UNITID":110662,"NAME":"University of California-Los Angeles","STREET":"405 Hilgard Ave","CITY":"Los Angeles","STATE":"CA","ZIP":"90095-1405","NMCNTY":"Los Angeles County","LAT":34.068892,"LON":-118.443901},{"UNITID":110671,"NAME":"University of California-Riverside","STREET":"900 University Ave","CITY":"Riverside","STATE":"CA","ZIP":"92521","NMCNTY":"Riverside County","LAT":33.97246,"LON":-117.32741},{"UNITID":110680,"NAME":"University of California-San Diego","STREET":"9500 Gilman Dr","CITY":"La Jolla","STATE":"CA","ZIP":"92093","NMCNTY":"San Diego County","LAT":32.877749,"LON":-117.235866},{"UNITID":110699,"NAME":"University of California-San Francisco","STREET":"500 Parnassus Ave","CITY":"San Francisco","STATE":"CA","ZIP":"94143-0244","NMCNTY":"San Francisco County","LAT":37.763737,"LON":-122.458489},{"UNITID":110705,"NAME":"University of California-Santa Barbara","STREET":"5221 Cheadle Hall","CITY":"Santa Barbara","STATE":"CA","ZIP":"93106","NMCNTY":"Santa Barbara County","LAT":34.416297,"LON":-119.846426},{"UNITID":110714,"NAME":"University of California-Santa Cruz","STREET":"1156 High St","CITY":"Santa Cruz","STATE":"CA","ZIP":"95064-1011","NMCNTY":"Santa Cruz County","LAT":36.995584,"LON":-122.058801},{"UNITID":110778,"NAME":"Sofia University","STREET":"1069 East Meadow Cr","CITY":"Palo Alto","STATE":"CA","ZIP":"94303","NMCNTY":"Santa Clara County","LAT":37.430325,"LON":-122.10866},{"UNITID":110875,"NAME":"California Beauty School","STREET":"1115 15th St","CITY":"Modesto","STATE":"CA","ZIP":"95354","NMCNTY":"Stanislaus County","LAT":37.645217,"LON":-120.99689},{"UNITID":110918,"NAME":"California Christian College","STREET":"5364 E. Belmont Avenue","CITY":"Fresno","STATE":"CA","ZIP":"93727","NMCNTY":"Fresno County","LAT":36.749366,"LON":-119.711123},{"UNITID":111045,"NAME":"California Graduate School of Theology","STREET":"11277 Garden Grove Boulevard","CITY":"Garden Grove","STATE":"CA","ZIP":"92843-1340","NMCNTY":"Orange County","LAT":33.774619,"LON":-117.936119},{"UNITID":111054,"NAME":"California Hair Design Academy","STREET":"8011 University Avenue, Suite A-2","CITY":"La Mesa","STATE":"CA","ZIP":"91942-5055","NMCNTY":"San Diego County","LAT":32.765221,"LON":-117.024261},{"UNITID":111081,"NAME":"California Institute of the Arts","STREET":"24700 W McBean Pky","CITY":"Valencia","STATE":"CA","ZIP":"91355-2397","NMCNTY":"Los Angeles County","LAT":34.39327,"LON":-118.566837},{"UNITID":111188,"NAME":"California State University Maritime Academy","STREET":"200 Maritime Academy Dr","CITY":"Vallejo","STATE":"CA","ZIP":"94590-8181","NMCNTY":"Solano County","LAT":38.069061,"LON":-122.231551},{"UNITID":111391,"NAME":"California Western School of Law","STREET":"225 Cedar St","CITY":"San Diego","STATE":"CA","ZIP":"92101-3046","NMCNTY":"San Diego County","LAT":32.722192,"LON":-117.162416},{"UNITID":111434,"NAME":"Canada College","STREET":"4200 Farm Hill Blvd.","CITY":"Redwood City","STATE":"CA","ZIP":"94061-1099","NMCNTY":"San Mateo County","LAT":37.44877,"LON":-122.265398},{"UNITID":111461,"NAME":"College of the Canyons","STREET":"26455 Rockwell Canyon Rd","CITY":"Santa Clarita","STATE":"CA","ZIP":"91355-1899","NMCNTY":"Los Angeles County","LAT":34.403993,"LON":-118.568698},{"UNITID":111513,"NAME":"Career Academy of Beauty","STREET":"12471 Valley View","CITY":"Garden Grove","STATE":"CA","ZIP":"92845","NMCNTY":"Orange County","LAT":33.781018,"LON":-118.031697},{"UNITID":111638,"NAME":"Casa Loma College-Van Nuys","STREET":"6725 Kester Ave","CITY":"Van Nuys","STATE":"CA","ZIP":"91405","NMCNTY":"Los Angeles County","LAT":34.192829,"LON":-118.457781},{"UNITID":111708,"NAME":"CET-San Diego","STREET":"4153 Market Street","CITY":"San Diego","STATE":"CA","ZIP":"92102","NMCNTY":"San Diego County","LAT":32.711302,"LON":-117.105328},{"UNITID":111717,"NAME":"CET-San Jose","STREET":"701 Vine St","CITY":"San Jose","STATE":"CA","ZIP":"95110","NMCNTY":"Santa Clara County","LAT":37.322723,"LON":-121.88698},{"UNITID":111726,"NAME":"CET-El Centro","STREET":"294 S 3rd St","CITY":"El Centro","STATE":"CA","ZIP":"92243","NMCNTY":"Imperial County","LAT":32.790908,"LON":-115.549079},{"UNITID":111744,"NAME":"CET-Colton","STREET":"1099 N. Pepper Ave","CITY":"Colton","STATE":"CA","ZIP":"92324","NMCNTY":"San Bernardino County","LAT":34.077381,"LON":-117.353488},{"UNITID":111762,"NAME":"CET-Watsonville","STREET":"10 Blanca Lane","CITY":"Watsonville","STATE":"CA","ZIP":"95076","NMCNTY":"Santa Cruz County","LAT":36.931833,"LON":-121.767991},{"UNITID":111799,"NAME":"CET-Salinas","STREET":"24 East Alvin Drive","CITY":"Salinas","STATE":"CA","ZIP":"93906","NMCNTY":"Monterey County","LAT":36.707333,"LON":-121.65236},{"UNITID":111887,"NAME":"Cerritos College","STREET":"11110 Alondra Blvd","CITY":"Norwalk","STATE":"CA","ZIP":"90650-6298","NMCNTY":"Los Angeles County","LAT":33.886874,"LON":-118.097337},{"UNITID":111896,"NAME":"Cerro Coso Community College","STREET":"3000 College Heights Blvd","CITY":"Ridgecrest","STATE":"CA","ZIP":"93555-9571","NMCNTY":"Kern County","LAT":35.567525,"LON":-117.66767},{"UNITID":111920,"NAME":"Chabot College","STREET":"25555 Hesperian Blvd","CITY":"Hayward","STATE":"CA","ZIP":"94545","NMCNTY":"Alameda County","LAT":37.642458,"LON":-122.105636},{"UNITID":111939,"NAME":"Chaffey College","STREET":"5885 Haven Ave","CITY":"Rancho Cucamonga","STATE":"CA","ZIP":"91737-3002","NMCNTY":"San Bernardino County","LAT":34.147663,"LON":-117.573932},{"UNITID":111948,"NAME":"Chapman University","STREET":"One University Dr.","CITY":"Orange","STATE":"CA","ZIP":"92866","NMCNTY":"Orange County","LAT":33.79302,"LON":-117.852518},{"UNITID":111966,"NAME":"Charles R Drew University of Medicine and Science","STREET":"1731 E 120th St","CITY":"Los Angeles","STATE":"CA","ZIP":"90059","NMCNTY":"Los Angeles County","LAT":33.925658,"LON":-118.242791},{"UNITID":112075,"NAME":"Concordia University-Irvine","STREET":"1530 Concordia West","CITY":"Irvine","STATE":"CA","ZIP":"92612-3203","NMCNTY":"Orange County","LAT":33.653665,"LON":-117.812305},{"UNITID":112084,"NAME":"San Diego Christian College","STREET":"200 Riverview Parkway","CITY":"Santee","STATE":"CA","ZIP":"92071","NMCNTY":"San Diego County","LAT":32.842404,"LON":-116.978112},{"UNITID":112093,"NAME":"Stockton Christian Life College","STREET":"9023 West Lane","CITY":"Stockton","STATE":"CA","ZIP":"95210-1401","NMCNTY":"San Joaquin County","LAT":38.029827,"LON":-121.296258},{"UNITID":112127,"NAME":"Church Divinity School of the Pacific","STREET":"2451 Ridge Road","CITY":"Berkeley","STATE":"CA","ZIP":"94709-1211","NMCNTY":"Alameda County","LAT":37.876184,"LON":-122.261122},{"UNITID":112172,"NAME":"Citrus College","STREET":"1000 W Foothill Blvd","CITY":"Glendora","STATE":"CA","ZIP":"91741-1899","NMCNTY":"Los Angeles County","LAT":34.135487,"LON":-117.885266},{"UNITID":112181,"NAME":"Citrus Heights Beauty College","STREET":"7518 Baird Way","CITY":"Citrus Heights","STATE":"CA","ZIP":"95610-1410","NMCNTY":"Sacramento County","LAT":38.712951,"LON":-121.289529},{"UNITID":112190,"NAME":"City College of San Francisco","STREET":"50 Frida Kahlo Drive","CITY":"San Francisco","STATE":"CA","ZIP":"94112-1898","NMCNTY":"San Francisco County","LAT":37.725953,"LON":-122.451155},{"UNITID":112251,"NAME":"Claremont Graduate University","STREET":"150 E Tenth St","CITY":"Claremont","STATE":"CA","ZIP":"91711-6160","NMCNTY":"Los Angeles County","LAT":34.103585,"LON":-117.713703},{"UNITID":112260,"NAME":"Claremont McKenna College","STREET":"500 E 9th St","CITY":"Claremont","STATE":"CA","ZIP":"91711-6400","NMCNTY":"Los Angeles County","LAT":34.102154,"LON":-117.711188},{"UNITID":112288,"NAME":"Milan Institute-Visalia","STREET":"6500 S. Mooney Blvd.","CITY":"Visalia","STATE":"CA","ZIP":"93277","NMCNTY":"Tulare County","LAT":36.27164,"LON":-119.312151},{"UNITID":112367,"NAME":"Clovis Adult Education","STREET":"1452 David E Cook Way","CITY":"Clovis","STATE":"CA","ZIP":"93611","NMCNTY":"Fresno County","LAT":36.834459,"LON":-119.690369},{"UNITID":112376,"NAME":"Coast Community College District Office","STREET":"1370 Adams Ave.","CITY":"Costa Mesa","STATE":"CA","ZIP":"92626","NMCNTY":"Orange County","LAT":33.674004,"LON":-117.916066},{"UNITID":112385,"NAME":"Coastline Community College","STREET":"11460 Warner Ave.","CITY":"Fountain Valley","STATE":"CA","ZIP":"92708-2597","NMCNTY":"Orange County","LAT":33.715634,"LON":-117.929143},{"UNITID":112394,"NAME":"Cogswell College","STREET":"191 Baypointe Parkway","CITY":"San Jose","STATE":"CA","ZIP":"95134","NMCNTY":"Santa Clara County","LAT":37.414049,"LON":-121.94087},{"UNITID":112455,"NAME":"Coba Academy","STREET":"663 N. Euclid Street","CITY":"Anaheim","STATE":"CA","ZIP":"92801","NMCNTY":"Orange County","LAT":33.841141,"LON":-117.943108},{"UNITID":112525,"NAME":"Western University of Health Sciences","STREET":"309 E 2nd St","CITY":"Pomona","STATE":"CA","ZIP":"91766-1854","NMCNTY":"Los Angeles County","LAT":34.058092,"LON":-117.747732},{"UNITID":112561,"NAME":"Columbia College","STREET":"11600 Columbia College Dr","CITY":"Sonora","STATE":"CA","ZIP":"95370","NMCNTY":"Tuolumne County","LAT":38.030367,"LON":-120.388385},{"UNITID":112570,"NAME":"Columbia College Hollywood","STREET":"18618 Oxnard St","CITY":"Tarzana","STATE":"CA","ZIP":"91356-1411","NMCNTY":"Los Angeles County","LAT":34.17972,"LON":-118.538793},{"UNITID":11257001,"NAME":"Flashpoint Chicago A Campus of Columbia College Hollywood","STREET":"28 North Clark Street","CITY":"Chicago","STATE":"IL","ZIP":"606022716","NMCNTY":"Cook County","LAT":41.882848,"LON":-87.631154},{"UNITID":112686,"NAME":"Compton College","STREET":"1111 East Artesia Blvd.","CITY":"Compton","STATE":"CA","ZIP":"90221-5393","NMCNTY":"Los Angeles County","LAT":33.878226,"LON":-118.209463},{"UNITID":112817,"NAME":"Contra Costa Community College District Office","STREET":"500 Court St","CITY":"Martinez","STATE":"CA","ZIP":"94553","NMCNTY":"Contra Costa County","LAT":38.019072,"LON":-122.135335},{"UNITID":112826,"NAME":"Contra Costa College","STREET":"2600 Mission Bell Dr","CITY":"San Pablo","STATE":"CA","ZIP":"94806-3195","NMCNTY":"Contra Costa County","LAT":37.969381,"LON":-122.337377},{"UNITID":113096,"NAME":"Cosumnes River College","STREET":"8401 Center Parkway","CITY":"Sacramento","STATE":"CA","ZIP":"95823-5799","NMCNTY":"Sacramento County","LAT":38.45295,"LON":-121.423108},{"UNITID":113111,"NAME":"Crafton Hills College","STREET":"11711 Sand Canyon Road","CITY":"Yucaipa","STATE":"CA","ZIP":"92339-1799","NMCNTY":"San Bernardino County","LAT":34.039178,"LON":-117.101173},{"UNITID":113193,"NAME":"Cuesta College","STREET":"Highway 1","CITY":"San Luis Obispo","STATE":"CA","ZIP":"93403-8106","NMCNTY":"San Luis Obispo County","LAT":35.331276,"LON":-120.742235},{"UNITID":113218,"NAME":"Cuyamaca College","STREET":"900 Rancho San Diego Pky","CITY":"El Cajon","STATE":"CA","ZIP":"92019","NMCNTY":"San Diego County","LAT":32.744954,"LON":-116.943507},{"UNITID":113236,"NAME":"Cypress College","STREET":"9200 Valley View","CITY":"Cypress","STATE":"CA","ZIP":"90630-5897","NMCNTY":"Orange County","LAT":33.82833,"LON":-118.025143},{"UNITID":113333,"NAME":"De Anza College","STREET":"21250 Stevens Creek Blvd.","CITY":"Cupertino","STATE":"CA","ZIP":"95014","NMCNTY":"Santa Clara County","LAT":37.320788,"LON":-122.045558},{"UNITID":113449,"NAME":"International School of Beauty Inc","STREET":"72261 Hwy 111 Ste 121-B","CITY":"Palm Desert","STATE":"CA","ZIP":"92260-2740","NMCNTY":"Riverside County","LAT":33.729555,"LON":-116.403928},{"UNITID":113537,"NAME":"Dell'Arte International School of Physical Theatre","STREET":"131 H Street","CITY":"Blue Lake","STATE":"CA","ZIP":"95525-0816","NMCNTY":"Humboldt County","LAT":40.880924,"LON":-123.988808},{"UNITID":113573,"NAME":"College of the Desert","STREET":"43-500 Monterey Ave","CITY":"Palm Desert","STATE":"CA","ZIP":"92260","NMCNTY":"Riverside County","LAT":33.732108,"LON":-116.388271},{"UNITID":113582,"NAME":"Design Institute of San Diego","STREET":"8555 Commerce Ave","CITY":"San Diego","STATE":"CA","ZIP":"92121","NMCNTY":"San Diego County","LAT":32.880926,"LON":-117.167374},{"UNITID":113634,"NAME":"Diablo Valley College","STREET":"321 Golf Club Rd","CITY":"Pleasant Hill","STATE":"CA","ZIP":"94523","NMCNTY":"Contra Costa County","LAT":37.968516,"LON":-122.073142},{"UNITID":113698,"NAME":"Dominican University of California","STREET":"50 Acacia Ave","CITY":"San Rafael","STATE":"CA","ZIP":"94901-2298","NMCNTY":"Marin County","LAT":37.981279,"LON":-122.512051},{"UNITID":113704,"NAME":"Dominican School of Philosophy & Theology","STREET":"2301 Vine Street","CITY":"Berkeley","STATE":"CA","ZIP":"94708-1816","NMCNTY":"Alameda County","LAT":37.881099,"LON":-122.264612},{"UNITID":113856,"NAME":"East Los Angeles College","STREET":"1301 Avenida Cesar Chavez","CITY":"Monterey Park","STATE":"CA","ZIP":"91754-6099","NMCNTY":"Los Angeles County","LAT":34.040531,"LON":-118.148785},{"UNITID":113980,"NAME":"El Camino Community College District","STREET":"16007 Crenshaw Blvd","CITY":"Torrance","STATE":"CA","ZIP":"90506","NMCNTY":"Los Angeles County","LAT":33.885229,"LON":-118.329913},{"UNITID":114044,"NAME":"Elegance International","STREET":"6767 Sunset Blvd","CITY":"Hollywood","STATE":"CA","ZIP":"90028","NMCNTY":"Los Angeles County","LAT":34.098445,"LON":-118.338111},{"UNITID":114114,"NAME":"Emperor's College of Traditional Oriental Medicine","STREET":"1807 Wilshire Blvd, Ste #200","CITY":"Santa Monica","STATE":"CA","ZIP":"90403","NMCNTY":"Los Angeles County","LAT":34.030438,"LON":-118.485119},{"UNITID":114123,"NAME":"Empire College","STREET":"3035 Cleveland Ave","CITY":"Santa Rosa","STATE":"CA","ZIP":"95403-2126","NMCNTY":"Sonoma County","LAT":38.468052,"LON":-122.729337},{"UNITID":114266,"NAME":"Evergreen Valley College","STREET":"3095 Yerba Buena Rd","CITY":"San Jose","STATE":"CA","ZIP":"95135-1598","NMCNTY":"Santa Clara County","LAT":37.30167,"LON":-121.76561},{"UNITID":114354,"NAME":"FIDM-Fashion Institute of Design & Merchandising-Los Angeles","STREET":"919 S Grand Ave","CITY":"Los Angeles","STATE":"CA","ZIP":"90015-1421","NMCNTY":"Los Angeles County","LAT":34.044209,"LON":-118.25993},{"UNITID":11435401,"NAME":"FIDM-Fashion Institute of Design & Merchandising-Orange County","STREET":"17590 Gillette Avenue","CITY":"Irvine","STATE":"CA","ZIP":"926145610","NMCNTY":"Orange County","LAT":33.692074,"LON":-117.852147},{"UNITID":11435402,"NAME":"FIDM-Fashion Institute of Design & Merchandising-San Diego","STREET":"350 Tenth Avenue, Third Floor","CITY":"San Diego","STATE":"CA","ZIP":"921014903","NMCNTY":"San Diego County","LAT":32.708915,"LON":-117.155908},{"UNITID":114390,"NAME":"FIDM-Fashion Institute of Design & Merchandising-San Francisco","STREET":"55 Stockton St","CITY":"San Francisco","STATE":"CA","ZIP":"94108-5805","NMCNTY":"San Francisco County","LAT":37.786353,"LON":-122.406651},{"UNITID":114415,"NAME":"FIDM-Fashion Institute of Design & Merchandising-Orange County","STREET":"17590 Gillette Avenue","CITY":"Irvine","STATE":"CA","ZIP":"92614-5610","NMCNTY":"Orange County","LAT":33.691963,"LON":-117.852254},{"UNITID":114433,"NAME":"Feather River Community College District","STREET":"570 Golden Eagle Ave","CITY":"Quincy","STATE":"CA","ZIP":"95971-9124","NMCNTY":"Plumas County","LAT":39.953101,"LON":-120.973067},{"UNITID":114460,"NAME":"Federico Beauty Institute","STREET":"1515 Sports Drive    Ste 100","CITY":"Sacramento","STATE":"CA","ZIP":"95834","NMCNTY":"Sacramento County","LAT":38.64883,"LON":-121.497761},{"UNITID":114549,"NAME":"Fielding Graduate University","STREET":"2020 De La Vina St","CITY":"Santa Barbara","STATE":"CA","ZIP":"93105-3538","NMCNTY":"Santa Barbara County","LAT":34.42941,"LON":-119.717161},{"UNITID":114585,"NAME":"Five Branches University","STREET":"200 7th Avenue","CITY":"Santa Cruz","STATE":"CA","ZIP":"95062","NMCNTY":"Santa Cruz County","LAT":36.964348,"LON":-121.998245},{"UNITID":11458501,"NAME":"San Jose Campus","STREET":"1885 Lundy Avenue, Suite 108","CITY":"San Jose","STATE":"CA","ZIP":"95131","NMCNTY":"Santa Clara County","LAT":37.393096,"LON":-121.891583},{"UNITID":114637,"NAME":"Redondo Beach Beauty College","STREET":"2205 West Artesia Boulevard","CITY":"Redondo Beach","STATE":"CA","ZIP":"90278-3111","NMCNTY":"Los Angeles County","LAT":33.873098,"LON":-118.372137},{"UNITID":114716,"NAME":"Foothill College","STREET":"12345 El Monte Rd","CITY":"Los Altos Hills","STATE":"CA","ZIP":"94022","NMCNTY":"Santa Clara County","LAT":37.361655,"LON":-122.127964},{"UNITID":114734,"NAME":"Franciscan School of Theology","STREET":"4050 Mission Avenue","CITY":"Oceanside","STATE":"CA","ZIP":"92057","NMCNTY":"San Diego County","LAT":33.232416,"LON":-117.320066},{"UNITID":11473402,"NAME":"Franciscan School of Theology - San Diego","STREET":"5998 Alcala Park","CITY":"San Diego","STATE":"CA","ZIP":"921102492","NMCNTY":"San Diego County","LAT":32.772407,"LON":-117.191964},{"UNITID":114761,"NAME":"Fredrick and Charles Beauty College","STREET":"831 F St","CITY":"Eureka","STATE":"CA","ZIP":"95501","NMCNTY":"Humboldt County","LAT":40.798885,"LON":-124.164986},{"UNITID":114789,"NAME":"Fresno City College","STREET":"1101 E. University Ave","CITY":"Fresno","STATE":"CA","ZIP":"93741","NMCNTY":"Fresno County","LAT":36.768164,"LON":-119.796096},{"UNITID":114813,"NAME":"Fresno Pacific University","STREET":"1717 S Chestnut Ave","CITY":"Fresno","STATE":"CA","ZIP":"93702-4709","NMCNTY":"Fresno County","LAT":36.726831,"LON":-119.735199},{"UNITID":114831,"NAME":"Foothill-De Anza Community College District","STREET":"12345 El Monte Rd","CITY":"Los Altos Hills","STATE":"CA","ZIP":"94022-4599","NMCNTY":"Santa Clara County","LAT":37.361664,"LON":-122.12796},{"UNITID":114840,"NAME":"Fuller Theological Seminary","STREET":"135 N Oakland Ave","CITY":"Pasadena","STATE":"CA","ZIP":"91182","NMCNTY":"Los Angeles County","LAT":34.14778,"LON":-118.140261},{"UNITID":114859,"NAME":"Fullerton College","STREET":"321 E Chapman Avenue","CITY":"Fullerton","STATE":"CA","ZIP":"92832-2095","NMCNTY":"Orange County","LAT":33.875514,"LON":-117.918255},{"UNITID":114938,"NAME":"Gavilan College","STREET":"5055 Santa Teresa Blvd","CITY":"Gilroy","STATE":"CA","ZIP":"95020","NMCNTY":"Santa Clara County","LAT":36.972627,"LON":-121.569842},{"UNITID":114947,"NAME":"Gemological Institute of America-Carlsbad","STREET":"5345 Armada Dr","CITY":"Carlsbad","STATE":"CA","ZIP":"92008","NMCNTY":"San Diego County","LAT":33.131313,"LON":-117.318765},{"UNITID":115001,"NAME":"Glendale Community College","STREET":"1500 N Verdugo Rd","CITY":"Glendale","STATE":"CA","ZIP":"91208-2894","NMCNTY":"Los Angeles County","LAT":34.16745,"LON":-118.227666},{"UNITID":115010,"NAME":"Glendale Career College","STREET":"240 North Brand Boulevard Lower Level","CITY":"Glendale","STATE":"CA","ZIP":"91203","NMCNTY":"Los Angeles County","LAT":34.149771,"LON":-118.254719},{"UNITID":115083,"NAME":"Golden Gate University-San Francisco","STREET":"536 Mission Street","CITY":"San Francisco","STATE":"CA","ZIP":"94105-2968","NMCNTY":"San Francisco County","LAT":37.789374,"LON":-122.398969},{"UNITID":11508305,"NAME":"Golden Gate University-Seattle","STREET":"1424 4th Avenue, Suite 410","CITY":"Seattle","STATE":"WA","ZIP":"981012218","NMCNTY":"King County","LAT":47.610138,"LON":-122.336135},{"UNITID":11508306,"NAME":"Golden Gate University-Silicon Valley","STREET":"3000 Mission College Blvd","CITY":"Santa Clara","STATE":"CA","ZIP":"950542218","NMCNTY":"Santa Clara County","LAT":37.39133,"LON":-121.982171},{"UNITID":115126,"NAME":"Golden West College","STREET":"15744 Goldenwest St.","CITY":"Huntington Beach","STATE":"CA","ZIP":"92647-2710","NMCNTY":"Orange County","LAT":33.732531,"LON":-118.002568},{"UNITID":115214,"NAME":"Graduate Theological Union","STREET":"2400 Ridge Rd","CITY":"Berkeley","STATE":"CA","ZIP":"94709","NMCNTY":"Alameda County","LAT":37.87554,"LON":-122.261847},{"UNITID":115287,"NAME":"Grossmont-Cuyamaca Community College District","STREET":"8800 Grossmont College Dr","CITY":"El Cajon","STATE":"CA","ZIP":"92020-1799","NMCNTY":"San Diego County","LAT":32.815246,"LON":-117.006277},{"UNITID":115296,"NAME":"Grossmont College","STREET":"8800 Grossmont College Dr","CITY":"El Cajon","STATE":"CA","ZIP":"92020-1799","NMCNTY":"San Diego County","LAT":32.815246,"LON":-117.006277},{"UNITID":115357,"NAME":"Salon Success Academy-Riverside","STREET":"6780 Indiana Ave. Ste #200","CITY":"Riverside","STATE":"CA","ZIP":"92506","NMCNTY":"Riverside County","LAT":33.943149,"LON":-117.391024},{"UNITID":115393,"NAME":"Hartnell College","STREET":"411 Central Avenue","CITY":"Salinas","STATE":"CA","ZIP":"93901","NMCNTY":"Monterey County","LAT":36.675091,"LON":-121.666054},{"UNITID":115409,"NAME":"Harvey Mudd College","STREET":"301 Platt Blvd.","CITY":"Claremont","STATE":"CA","ZIP":"91711","NMCNTY":"Los Angeles County","LAT":34.106515,"LON":-117.709837},{"UNITID":115658,"NAME":"Hilltop Beauty School","STREET":"6317 Mission St","CITY":"Daly City","STATE":"CA","ZIP":"94014","NMCNTY":"San Mateo County","LAT":37.705502,"LON":-122.461467},{"UNITID":115728,"NAME":"Holy Names University","STREET":"3500 Mountain Blvd","CITY":"Oakland","STATE":"CA","ZIP":"94619-1699","NMCNTY":"Alameda County","LAT":37.802276,"LON":-122.187804},{"UNITID":115746,"NAME":"Pacifica Graduate Institute","STREET":"249 Lambert Rd","CITY":"Carpinteria","STATE":"CA","ZIP":"93013","NMCNTY":"Santa Barbara County","LAT":34.420881,"LON":-119.580414},{"UNITID":115755,"NAME":"Humboldt State University","STREET":"1 Harpst Street","CITY":"Arcata","STATE":"CA","ZIP":"95521-8299","NMCNTY":"Humboldt County","LAT":40.877481,"LON":-124.078293},{"UNITID":115773,"NAME":"Humphreys University-Stockton and Modesto Campuses","STREET":"6650 Inglewood Ave","CITY":"Stockton","STATE":"CA","ZIP":"95207-3896","NMCNTY":"San Joaquin County","LAT":38.011489,"LON":-121.316918},{"UNITID":11577301,"NAME":"Humphreys College-Modesto","STREET":"3600 Sisk Rd Ste 5A","CITY":"Modesto","STATE":"CA","ZIP":"95356-0532","NMCNTY":"Stanislaus County","LAT":37.690206,"LON":-121.060493},{"UNITID":115861,"NAME":"Imperial Valley College","STREET":"380 E. Aten Road","CITY":"Imperial","STATE":"CA","ZIP":"92251-0158","NMCNTY":"Imperial County","LAT":32.827209,"LON":-115.503563},{"UNITID":115931,"NAME":"Institute for Business and Technology","STREET":"2400 Walsh Avenue","CITY":"Santa Clara","STATE":"CA","ZIP":"95051-1303","NMCNTY":"Santa Clara County","LAT":37.368642,"LON":-121.969541},{"UNITID":116226,"NAME":"Interior Designers Institute","STREET":"1061 Camelback Street","CITY":"Newport Beach","STATE":"CA","ZIP":"92660","NMCNTY":"Orange County","LAT":33.641393,"LON":-117.865722},{"UNITID":116350,"NAME":"Toni & Guy Hairdressing Academy-Santa Monica","STREET":"1358 5th St","CITY":"Santa Monica","STATE":"CA","ZIP":"90401","NMCNTY":"Los Angeles County","LAT":34.017276,"LON":-118.494755},{"UNITID":11635001,"NAME":"International School of Cosmetology","STREET":"3400 Bristol St - TONI&GUY Hairdressing Academy","CITY":"Costa Mesa","STATE":"CA","ZIP":"92626","NMCNTY":"Orange County","LAT":33.693088,"LON":-117.885047},{"UNITID":116439,"NAME":"Irvine Valley College","STREET":"5500 Irvine Center Drive","CITY":"Irvine","STATE":"CA","ZIP":"92618-0301","NMCNTY":"Orange County","LAT":33.675381,"LON":-117.777539},{"UNITID":11643901,"NAME":"ATEP at IVC","STREET":"15445 Lansdowne Road","CITY":"Tustin","STATE":"CA","ZIP":"927820223","NMCNTY":"Orange County","LAT":33.716501,"LON":-117.830905},{"UNITID":116563,"NAME":"Bellus Academy-El Cajon","STREET":"1073 E Main St","CITY":"El Cajon","STATE":"CA","ZIP":"92021","NMCNTY":"San Diego County","LAT":32.794072,"LON":-116.94627},{"UNITID":116712,"NAME":"John F. Kennedy University","STREET":"100 Ellinwood Way","CITY":"Pleasant Hill","STATE":"CA","ZIP":"94523-4817","NMCNTY":"Contra Costa County","LAT":37.956616,"LON":-122.054761},{"UNITID":116846,"NAME":"American Jewish University","STREET":"15600 Mulholland Dr","CITY":"Los Angeles","STATE":"CA","ZIP":"90077-1519","NMCNTY":"Los Angeles County","LAT":34.128153,"LON":-118.471706},{"UNITID":117052,"NAME":"Reedley College","STREET":"995 N Reed Ave","CITY":"Reedley","STATE":"CA","ZIP":"93654","NMCNTY":"Fresno County","LAT":36.605428,"LON":-119.458555},{"UNITID":117104,"NAME":"Life Pacific University","STREET":"1100 W. Covina Blvd.","CITY":"San Dimas","STATE":"CA","ZIP":"91773-3298","NMCNTY":"Los Angeles County","LAT":34.098705,"LON":-117.829388},{"UNITID":11710401,"NAME":"Life Pacific University-Virginia","STREET":"900 Life Drive","CITY":"Christiansburg","STATE":"VA","ZIP":"24073","NMCNTY":"Montgomery County","LAT":37.116221,"LON":-80.414888},{"UNITID":117140,"NAME":"University of La Verne","STREET":"1950 Third St","CITY":"La Verne","STATE":"CA","ZIP":"91750-4401","NMCNTY":"Los Angeles County","LAT":34.100855,"LON":-117.773262},{"UNITID":117168,"NAME":"Laguna College of Art and Design","STREET":"2222 Laguna Canyon Rd","CITY":"Laguna Beach","STATE":"CA","ZIP":"92651","NMCNTY":"Orange County","LAT":33.561448,"LON":-117.772564},{"UNITID":117195,"NAME":"Lake Tahoe Community College","STREET":"One College Drive","CITY":"South Lake Tahoe","STATE":"CA","ZIP":"96150","NMCNTY":"El Dorado County","LAT":38.926797,"LON":-119.972574},{"UNITID":117238,"NAME":"Lancaster Beauty School","STREET":"44646 N 10th St W","CITY":"Lancaster","STATE":"CA","ZIP":"93534","NMCNTY":"Los Angeles County","LAT":34.694914,"LON":-118.147547},{"UNITID":117247,"NAME":"Laney College","STREET":"900 Fallon Sreet","CITY":"Oakland","STATE":"CA","ZIP":"94607","NMCNTY":"Alameda County","LAT":37.797257,"LON":-122.26283},{"UNITID":117274,"NAME":"Lassen Community College","STREET":"478-200 Hwy 139","CITY":"Susanville","STATE":"CA","ZIP":"96130","NMCNTY":"Lassen County","LAT":40.432053,"LON":-120.633271},{"UNITID":117520,"NAME":"Life Chiropractic College West","STREET":"25001 Industrial Blvd","CITY":"Hayward","STATE":"CA","ZIP":"94545-2800","NMCNTY":"Alameda County","LAT":37.638099,"LON":-122.117619},{"UNITID":117548,"NAME":"Lincoln Law School of Sacramento","STREET":"3140 J Street","CITY":"Sacramento","STATE":"CA","ZIP":"95816","NMCNTY":"Sacramento County","LAT":38.57216,"LON":-121.464021},{"UNITID":117557,"NAME":"Lincoln University","STREET":"401 15th Street","CITY":"Oakland","STATE":"CA","ZIP":"94612-2801","NMCNTY":"Alameda County","LAT":37.804788,"LON":-122.269745},{"UNITID":117575,"NAME":"Southern California Seminary","STREET":"2075 E. Madison Avenue","CITY":"El Cajon","STATE":"CA","ZIP":"92019-1108","NMCNTY":"San Diego County","LAT":32.799614,"LON":-116.905461},{"UNITID":117627,"NAME":"La Sierra University","STREET":"4500 Riverwalk Parkway","CITY":"Riverside","STATE":"CA","ZIP":"92505-8247","NMCNTY":"Riverside County","LAT":33.910704,"LON":-117.500054},{"UNITID":117636,"NAME":"Loma Linda University","STREET":"11139 Anderson Street","CITY":"Loma Linda","STATE":"CA","ZIP":"92350","NMCNTY":"San Bernardino County","LAT":34.051241,"LON":-117.260605},{"UNITID":117645,"NAME":"Long Beach City College","STREET":"4901 E. Carson St.","CITY":"Long Beach","STATE":"CA","ZIP":"90808-1706","NMCNTY":"Los Angeles County","LAT":33.833593,"LON":-118.135633},{"UNITID":117672,"NAME":"Southern California University of Health Sciences","STREET":"16200 East Amber Valley Drive","CITY":"Whittier","STATE":"CA","ZIP":"90604","NMCNTY":"Los Angeles County","LAT":33.922966,"LON":-117.983401},{"UNITID":117681,"NAME":"Los Angeles Community College District Office","STREET":"770 Wilshire Blvd","CITY":"Los Angeles","STATE":"CA","ZIP":"90017","NMCNTY":"Los Angeles County","LAT":34.048969,"LON":-118.258047},{"UNITID":117690,"NAME":"Los Angeles Harbor College","STREET":"1111 Figueroa Place","CITY":"Wilmington","STATE":"CA","ZIP":"90744-2397","NMCNTY":"Los Angeles County","LAT":33.784201,"LON":-118.28186},{"UNITID":117706,"NAME":"Los Angeles Pierce College","STREET":"6201 Winnetka Ave","CITY":"Woodland Hills","STATE":"CA","ZIP":"91371-0002","NMCNTY":"Los Angeles County","LAT":34.183949,"LON":-118.575071},{"UNITID":117715,"NAME":"Los Angeles Southwest College","STREET":"1600 W. Imperial Hwy.","CITY":"Los Angeles","STATE":"CA","ZIP":"90047-4899","NMCNTY":"Los Angeles County","LAT":33.929586,"LON":-118.304674},{"UNITID":117724,"NAME":"Los Angeles Trade Technical College","STREET":"400 W Washington Blvd","CITY":"Los Angeles","STATE":"CA","ZIP":"90015-4181","NMCNTY":"Los Angeles County","LAT":34.031907,"LON":-118.269447},{"UNITID":117733,"NAME":"Los Angeles Valley College","STREET":"5800 Fulton Avenue","CITY":"Valley Glen","STATE":"CA","ZIP":"91401-4096","NMCNTY":"Los Angeles County","LAT":34.175165,"LON":-118.421734},{"UNITID":117751,"NAME":"The Master's University and Seminary","STREET":"21726 Placerita Canyon Road","CITY":"Santa Clarita","STATE":"CA","ZIP":"91321-1200","NMCNTY":"Los Angeles County","LAT":34.381755,"LON":-118.518193},{"UNITID":117788,"NAME":"Los Angeles City College","STREET":"855 N Vermont Ave","CITY":"Los Angeles","STATE":"CA","ZIP":"90029","NMCNTY":"Los Angeles County","LAT":34.087301,"LON":-118.292169},{"UNITID":117803,"NAME":"Los Angeles County College of Nursing and Allied Health","STREET":"1237 N. Mission Rd.","CITY":"Los Angeles","STATE":"CA","ZIP":"90033-1084","NMCNTY":"Los Angeles County","LAT":34.062647,"LON":-118.211852},{"UNITID":117867,"NAME":"Los Angeles Mission College","STREET":"13356 Eldridge Avenue","CITY":"Sylmar","STATE":"CA","ZIP":"91342-3200","NMCNTY":"Los Angeles County","LAT":34.314668,"LON":-118.4195},{"UNITID":117894,"NAME":"Los Medanos College","STREET":"2700 East Leland Road","CITY":"Pittsburg","STATE":"CA","ZIP":"94565","NMCNTY":"Contra Costa County","LAT":38.006474,"LON":-121.860967},{"UNITID":117900,"NAME":"Los Rios Community College District Office","STREET":"1919 Spanos Ct","CITY":"Sacramento","STATE":"CA","ZIP":"95825-3981","NMCNTY":"Sacramento County","LAT":38.579859,"LON":-121.417145},{"UNITID":117946,"NAME":"Loyola Marymount University","STREET":"One Lmu Drive","CITY":"Los Angeles","STATE":"CA","ZIP":"90045-2659","NMCNTY":"Los Angeles County","LAT":33.97085,"LON":-118.415744},{"UNITID":117955,"NAME":"Lu Ross Academy","STREET":"470 East Thompson Blvd","CITY":"Ventura","STATE":"CA","ZIP":"93001-2729","NMCNTY":"Ventura County","LAT":34.278034,"LON":-119.293952},{"UNITID":118134,"NAME":"Lyle's College of Beauty","STREET":"2935 F St","CITY":"Bakersfield","STATE":"CA","ZIP":"93301","NMCNTY":"Kern County","LAT":35.386539,"LON":-119.02387},{"UNITID":118143,"NAME":"Lyle's College of  Beauty","STREET":"6735 N First Ave Ste 112","CITY":"Fresno","STATE":"CA","ZIP":"93710","NMCNTY":"Fresno County","LAT":36.836265,"LON":-119.774167},{"UNITID":118161,"NAME":"Lytles Redwood Empire Beauty College Inc","STREET":"186 Wikiup Dr","CITY":"Santa Rosa","STATE":"CA","ZIP":"95403","NMCNTY":"Sonoma County","LAT":38.508385,"LON":-122.75777},{"UNITID":118189,"NAME":"MTI Business College Inc","STREET":"6006 N. El Dorado Street","CITY":"Stockton","STATE":"CA","ZIP":"95207-4349","NMCNTY":"San Joaquin County","LAT":38.007885,"LON":-121.308445},{"UNITID":118198,"NAME":"MTI College","STREET":"5221 Madison Avenue","CITY":"Sacramento","STATE":"CA","ZIP":"95841-9817","NMCNTY":"Sacramento County","LAT":38.661377,"LON":-121.342568},{"UNITID":118347,"NAME":"College of Marin","STREET":"835 College Ave","CITY":"Kentfield","STATE":"CA","ZIP":"94904-2590","NMCNTY":"Marin County","LAT":37.954897,"LON":-122.549149},{"UNITID":118541,"NAME":"Marymount California University","STREET":"30800 Palos Verdes Drive East","CITY":"Rancho Palos Verdes","STATE":"CA","ZIP":"90275-6299","NMCNTY":"Los Angeles County","LAT":33.734887,"LON":-118.333371},{"UNITID":11854101,"NAME":"Marymount University - Waterfront Campus","STREET":"222 West Sixth Street","CITY":"San Pedro","STATE":"CA","ZIP":"907313316","NMCNTY":"Los Angeles County","LAT":33.738991,"LON":-118.281861},{"UNITID":11854102,"NAME":"Marymount California University - Lakeside Campus","STREET":"3700 Country Club Dr.","CITY":"Lucerne","STATE":"CA","ZIP":"954580000","NMCNTY":"Lake County","LAT":39.089326,"LON":-122.788773},{"UNITID":118684,"NAME":"Mendocino College","STREET":"1000 Hensley Creek Road","CITY":"Ukiah","STATE":"CA","ZIP":"95482","NMCNTY":"Mendocino County","LAT":39.188989,"LON":-123.228809},{"UNITID":118693,"NAME":"Menlo College","STREET":"1000 El Camino Real","CITY":"Atherton","STATE":"CA","ZIP":"94027-4301","NMCNTY":"San Mateo County","LAT":37.453475,"LON":-122.190797},{"UNITID":118718,"NAME":"Merced College","STREET":"3600 M St","CITY":"Merced","STATE":"CA","ZIP":"95348-2898","NMCNTY":"Merced County","LAT":37.3353,"LON":-120.476464},{"UNITID":118772,"NAME":"Merritt College","STREET":"12500 Campus Dr","CITY":"Oakland","STATE":"CA","ZIP":"94619-3196","NMCNTY":"Alameda County","LAT":37.789088,"LON":-122.167335},{"UNITID":118888,"NAME":"Mills College","STREET":"5000 MacArthur Blvd","CITY":"Oakland","STATE":"CA","ZIP":"94613","NMCNTY":"Alameda County","LAT":37.781425,"LON":-122.182294},{"UNITID":118912,"NAME":"MiraCosta College","STREET":"One Barnard Drive","CITY":"Oceanside","STATE":"CA","ZIP":"92056-3899","NMCNTY":"San Diego County","LAT":33.190483,"LON":-117.302606},{"UNITID":11891201,"NAME":"MiraCosta College - San Elijo Campus","STREET":"3333 Manchester Avenue","CITY":"Cardiff","STATE":"CA","ZIP":"920071516","NMCNTY":"San Diego County","LAT":33.018082,"LON":-117.258561},{"UNITID":118930,"NAME":"Mission College","STREET":"3000 Mission College Blvd","CITY":"Santa Clara","STATE":"CA","ZIP":"95054-1897","NMCNTY":"Santa Clara County","LAT":37.391935,"LON":-121.980783},{"UNITID":118958,"NAME":"Modern Beauty Academy","STREET":"699 South C St","CITY":"Oxnard","STATE":"CA","ZIP":"93030","NMCNTY":"Ventura County","LAT":34.195384,"LON":-119.181423},{"UNITID":118976,"NAME":"Modesto Junior College","STREET":"435 College Ave","CITY":"Modesto","STATE":"CA","ZIP":"95350-5800","NMCNTY":"Stanislaus County","LAT":37.651056,"LON":-121.009792},{"UNITID":118994,"NAME":"Moler Barber College","STREET":"3815 Telegraph Ave","CITY":"Oakland","STATE":"CA","ZIP":"94609-2419","NMCNTY":"Alameda County","LAT":37.827075,"LON":-122.265352},{"UNITID":119058,"NAME":"Middlebury Institute of International Studies at Monterey","STREET":"460 Pierce Street","CITY":"Monterey","STATE":"CA","ZIP":"93940","NMCNTY":"Monterey County","LAT":36.599736,"LON":-121.897325},{"UNITID":119067,"NAME":"Monterey Peninsula College","STREET":"980 Fremont St","CITY":"Monterey","STATE":"CA","ZIP":"93940-4799","NMCNTY":"Monterey County","LAT":36.590558,"LON":-121.884931},{"UNITID":119137,"NAME":"Moorpark College","STREET":"7075 Campus Rd","CITY":"Moorpark","STATE":"CA","ZIP":"93021-1695","NMCNTY":"Ventura County","LAT":34.301146,"LON":-118.834528},{"UNITID":119164,"NAME":"Mt San Antonio College","STREET":"1100 N Grand Ave","CITY":"Walnut","STATE":"CA","ZIP":"91789-1399","NMCNTY":"Los Angeles County","LAT":34.047764,"LON":-117.846629},{"UNITID":119173,"NAME":"Mount Saint Mary's University","STREET":"12001 Chalon Rd","CITY":"Los Angeles","STATE":"CA","ZIP":"90049-1599","NMCNTY":"Los Angeles County","LAT":34.085315,"LON":-118.482879},{"UNITID":11917301,"NAME":"Mount Saint Mary's University - Doheny Campus","STREET":"10 Chester Place","CITY":"Los Angeles","STATE":"CA","ZIP":"90007","NMCNTY":"Los Angeles County","LAT":34.030668,"LON":-118.277012},{"UNITID":119216,"NAME":"Mt San Jacinto Community College District","STREET":"1499 N. State St.","CITY":"San Jacinto","STATE":"CA","ZIP":"92583-2399","NMCNTY":"Riverside County","LAT":33.806748,"LON":-116.971169},{"UNITID":119270,"NAME":"Musicians Institute","STREET":"6752 Hollywood Blvd.","CITY":"Hollywood","STATE":"CA","ZIP":"90028","NMCNTY":"Los Angeles County","LAT":34.101265,"LON":-118.337582},{"UNITID":119331,"NAME":"Napa Valley College","STREET":"2277 Napa-Vallejo Hwy","CITY":"Napa","STATE":"CA","ZIP":"94558-6236","NMCNTY":"Napa County","LAT":38.274081,"LON":-122.274381},{"UNITID":119553,"NAME":"National Holistic Institute","STREET":"5900 Doyle Street","CITY":"Emeryville","STATE":"CA","ZIP":"94608-2008","NMCNTY":"Alameda County","LAT":37.841898,"LON":-122.287672},{"UNITID":119605,"NAME":"National University","STREET":"11255 North Torrey Pines Road","CITY":"La Jolla","STATE":"CA","ZIP":"92037-1011","NMCNTY":"San Diego County","LAT":32.909894,"LON":-117.243026},{"UNITID":119678,"NAME":"Naval Postgraduate School","STREET":"1 University Circle","CITY":"Monterey","STATE":"CA","ZIP":"93943","NMCNTY":"Monterey County","LAT":36.597159,"LON":-121.874248},{"UNITID":119775,"NAME":"Newschool of Architecture and Design","STREET":"1249 F St","CITY":"San Diego","STATE":"CA","ZIP":"92101","NMCNTY":"San Diego County","LAT":32.71331,"LON":-117.153305},{"UNITID":119845,"NAME":"Newberry School of Beauty","STREET":"16860 Devonshire Blvd","CITY":"Granada Hills","STATE":"CA","ZIP":"91344-7401","NMCNTY":"Los Angeles County","LAT":34.256683,"LON":-118.499693},{"UNITID":119951,"NAME":"North Adrian's College of Beauty Inc","STREET":"124 Floyd Ave","CITY":"Modesto","STATE":"CA","ZIP":"95350-2381","NMCNTY":"Stanislaus County","LAT":37.677778,"LON":-120.992753},{"UNITID":120023,"NAME":"North Orange County Community College District","STREET":"1830 W. Romneya Drive","CITY":"Anaheim","STATE":"CA","ZIP":"92801-1819","NMCNTY":"Orange County","LAT":33.849957,"LON":-117.945559},{"UNITID":120069,"NAME":"North-West College-Pomona","STREET":"170  W Holt Ave","CITY":"Pomona","STATE":"CA","ZIP":"91768","NMCNTY":"Los Angeles County","LAT":34.062043,"LON":-117.751227},{"UNITID":120078,"NAME":"North-West College-West Covina","STREET":"2121 W Garvey Ave","CITY":"West Covina","STATE":"CA","ZIP":"91790","NMCNTY":"Los Angeles County","LAT":34.072071,"LON":-117.949583},{"UNITID":120087,"NAME":"North-West College-Van Nuys","STREET":"14540 Haynes","CITY":"Van Nuys","STATE":"CA","ZIP":"91411","NMCNTY":"Los Angeles County","LAT":34.189497,"LON":-118.450184},{"UNITID":120166,"NAME":"Northwestern Polytechnic University","STREET":"47671 Westinghouse Drive","CITY":"Fremont","STATE":"CA","ZIP":"94539","NMCNTY":"Alameda County","LAT":37.477991,"LON":-121.925953},{"UNITID":120184,"NAME":"Notre Dame de Namur University","STREET":"1500 Ralston Ave","CITY":"Belmont","STATE":"CA","ZIP":"94002-1908","NMCNTY":"San Mateo County","LAT":37.517111,"LON":-122.284794},{"UNITID":120254,"NAME":"Occidental College","STREET":"1600 Campus Rd","CITY":"Los Angeles","STATE":"CA","ZIP":"90041-3392","NMCNTY":"Los Angeles County","LAT":34.127124,"LON":-118.210908},{"UNITID":120290,"NAME":"Ohlone College","STREET":"43600 Mission Blvd","CITY":"Fremont","STATE":"CA","ZIP":"94539-0390","NMCNTY":"Alameda County","LAT":37.52773,"LON":-121.916339},{"UNITID":120342,"NAME":"Orange Coast College","STREET":"2701 Fairview Road","CITY":"Costa Mesa","STATE":"CA","ZIP":"92626","NMCNTY":"Orange County","LAT":33.66927,"LON":-117.909086},{"UNITID":120403,"NAME":"Otis College of Art and Design","STREET":"9045 Lincoln Blvd","CITY":"Los Angeles","STATE":"CA","ZIP":"90045-3505","NMCNTY":"Los Angeles County","LAT":33.956607,"LON":-118.416615},{"UNITID":120421,"NAME":"Oxnard College","STREET":"4000 S Rose Ave","CITY":"Oxnard","STATE":"CA","ZIP":"93033-6699","NMCNTY":"Ventura County","LAT":34.166104,"LON":-119.157604},{"UNITID":120537,"NAME":"Hope International University","STREET":"2500 E Nutwood Ave","CITY":"Fullerton","STATE":"CA","ZIP":"92831-3199","NMCNTY":"Orange County","LAT":33.87616,"LON":-117.88573},{"UNITID":120661,"NAME":"Concorde Career College-San Diego","STREET":"4393 Imperial Avenue, Suite 100","CITY":"San Diego","STATE":"CA","ZIP":"92113-1964","NMCNTY":"San Diego County","LAT":32.702814,"LON":-117.102845},{"UNITID":120698,"NAME":"Palo Alto University","STREET":"1791 Arastradero Rd","CITY":"Palo Alto","STATE":"CA","ZIP":"94304-1337","NMCNTY":"Santa Clara County","LAT":37.382216,"LON":-122.187437},{"UNITID":120768,"NAME":"Pacific Oaks College","STREET":"45 Eureka Street","CITY":"Pasadena","STATE":"CA","ZIP":"91103","NMCNTY":"Los Angeles County","LAT":34.153382,"LON":-118.151323},{"UNITID":120795,"NAME":"Pacific School of Religion","STREET":"1798 Scenic Ave","CITY":"Berkeley","STATE":"CA","ZIP":"94709","NMCNTY":"Alameda County","LAT":37.87669,"LON":-122.263155},{"UNITID":120838,"NAME":"Pacific States University","STREET":"3424 Wilshire Blvd. 12th floor","CITY":"Los Angeles","STATE":"CA","ZIP":"90010-2263","NMCNTY":"Los Angeles County","LAT":34.061315,"LON":-118.298408},{"UNITID":120865,"NAME":"Pacific Union College","STREET":"One Angwin Ave","CITY":"Angwin","STATE":"CA","ZIP":"94508-9707","NMCNTY":"Napa County","LAT":38.570585,"LON":-122.440308},{"UNITID":120883,"NAME":"University of the Pacific","STREET":"3601 Pacific Ave","CITY":"Stockton","STATE":"CA","ZIP":"95211-0197","NMCNTY":"San Joaquin County","LAT":37.981424,"LON":-121.312301},{"UNITID":120953,"NAME":"Palo Verde College","STREET":"One College Drive","CITY":"Blythe","STATE":"CA","ZIP":"92225","NMCNTY":"Riverside County","LAT":33.661538,"LON":-114.651698},{"UNITID":120971,"NAME":"Palomar College","STREET":"1140 W. Mission","CITY":"San Marcos","STATE":"CA","ZIP":"92069-1487","NMCNTY":"San Diego County","LAT":33.149483,"LON":-117.183978},{"UNITID":121044,"NAME":"Pasadena City College","STREET":"1570 E Colorado Blvd.","CITY":"Pasadena","STATE":"CA","ZIP":"91106-2003","NMCNTY":"Los Angeles County","LAT":34.144552,"LON":-118.118196},{"UNITID":121150,"NAME":"Pepperdine University","STREET":"24255 Pacific Coast Hwy","CITY":"Malibu","STATE":"CA","ZIP":"90263","NMCNTY":"Los Angeles County","LAT":34.037786,"LON":-118.707077},{"UNITID":121178,"NAME":"Peralta Community College System Office","STREET":"333 E Eighth St","CITY":"Oakland","STATE":"CA","ZIP":"94606","NMCNTY":"Alameda County","LAT":37.792667,"LON":-122.260837},{"UNITID":121257,"NAME":"Pitzer College","STREET":"1050 North Mills Avenue","CITY":"Claremont","STATE":"CA","ZIP":"91711-6101","NMCNTY":"Los Angeles County","LAT":34.104107,"LON":-117.706675},{"UNITID":121275,"NAME":"Platt College-San Diego","STREET":"6250 El Cajon Blvd","CITY":"San Diego","STATE":"CA","ZIP":"92115-3919","NMCNTY":"San Diego County","LAT":32.76373,"LON":-117.063483},{"UNITID":121309,"NAME":"Point Loma Nazarene University","STREET":"3900 Lomaland Dr","CITY":"San Diego","STATE":"CA","ZIP":"92106-2899","NMCNTY":"San Diego County","LAT":32.718391,"LON":-117.250265},{"UNITID":121345,"NAME":"Pomona College","STREET":"550 N College Ave","CITY":"Claremont","STATE":"CA","ZIP":"91711-6319","NMCNTY":"Los Angeles County","LAT":34.099027,"LON":-117.714556},{"UNITID":121363,"NAME":"Porterville College","STREET":"100 E College Ave","CITY":"Porterville","STATE":"CA","ZIP":"93257","NMCNTY":"Tulare County","LAT":36.049256,"LON":-119.014368},{"UNITID":121433,"NAME":"Professional Institute of Beauty","STREET":"10801 E. Valley Mall","CITY":"El Monte","STATE":"CA","ZIP":"91731","NMCNTY":"Los Angeles County","LAT":34.075561,"LON":-118.039028},{"UNITID":121619,"NAME":"Santa Ana College","STREET":"1530 W. 17th Street","CITY":"Santa Ana","STATE":"CA","ZIP":"92706-3398","NMCNTY":"Orange County","LAT":33.759309,"LON":-117.887558},{"UNITID":121628,"NAME":"Pardee RAND Graduate School","STREET":"1776 Main St","CITY":"Santa Monica","STATE":"CA","ZIP":"90401-3208","NMCNTY":"Los Angeles County","LAT":34.00973,"LON":-118.490655},{"UNITID":121637,"NAME":"Shasta School of Cosmetology","STREET":"678 N Market St","CITY":"Redding","STATE":"CA","ZIP":"96003","NMCNTY":"Shasta County","LAT":40.597114,"LON":-122.387248},{"UNITID":121691,"NAME":"University of Redlands","STREET":"1200 E. Colton Ave","CITY":"Redlands","STATE":"CA","ZIP":"92373-0999","NMCNTY":"San Bernardino County","LAT":34.064218,"LON":-117.163218},{"UNITID":121707,"NAME":"College of the Redwoods","STREET":"7351 Tompkins Hill Rd","CITY":"Eureka","STATE":"CA","ZIP":"95501-9300","NMCNTY":"Humboldt County","LAT":40.698427,"LON":-124.195293},{"UNITID":121859,"NAME":"Salon Success Academy-Upland","STREET":"1385 E. Foothill Blvd","CITY":"Upland","STATE":"CA","ZIP":"91786","NMCNTY":"San Bernardino County","LAT":34.108247,"LON":-117.631783},{"UNITID":121868,"NAME":"Salon Success Academy-Corona","STREET":"2097 Compton Ave. Suite 201","CITY":"Corona","STATE":"CA","ZIP":"92881","NMCNTY":"Riverside County","LAT":33.847649,"LON":-117.535638},{"UNITID":121886,"NAME":"Rio Hondo College","STREET":"3600 Workman Mill Rd","CITY":"Whittier","STATE":"CA","ZIP":"90601-1616","NMCNTY":"Los Angeles County","LAT":34.019821,"LON":-118.033506},{"UNITID":121901,"NAME":"Riverside City College","STREET":"4800 Magnolia Avenue","CITY":"Riverside","STATE":"CA","ZIP":"92506","NMCNTY":"Riverside County","LAT":33.970918,"LON":-117.384323},{"UNITID":121992,"NAME":"Rosemead Beauty School","STREET":"8531 E Valley Blvd","CITY":"Rosemead","STATE":"CA","ZIP":"91770-1639","NMCNTY":"Los Angeles County","LAT":34.080756,"LON":-118.082793},{"UNITID":122117,"NAME":"Dongguk University-Los Angeles","STREET":"440 Shatto Pl","CITY":"Los Angeles","STATE":"CA","ZIP":"90020-1704","NMCNTY":"Los Angeles County","LAT":34.06597,"LON":-118.289523},{"UNITID":122180,"NAME":"Sacramento City College","STREET":"3835 Freeport Blvd","CITY":"Sacramento","STATE":"CA","ZIP":"95822-1386","NMCNTY":"Sacramento County","LAT":38.541096,"LON":-121.491139},{"UNITID":122205,"NAME":"Saddleback College","STREET":"28000 Marguerite Pky","CITY":"Mission Viejo","STATE":"CA","ZIP":"92692-3635","NMCNTY":"Orange County","LAT":33.553346,"LON":-117.665584},{"UNITID":122296,"NAME":"Samuel Merritt University","STREET":"3100 Telegraph Avenue","CITY":"Oakland","STATE":"CA","ZIP":"94609","NMCNTY":"Alameda County","LAT":37.82029,"LON":-122.266331},{"UNITID":122320,"NAME":"San Diego Community College District-District Office","STREET":"3375 Camino del Rio South","CITY":"San Diego","STATE":"CA","ZIP":"92108","NMCNTY":"San Diego County","LAT":32.776275,"LON":-117.120504},{"UNITID":122339,"NAME":"San Diego City College","STREET":"1313 Park Boulevard","CITY":"San Diego","STATE":"CA","ZIP":"92101-4787","NMCNTY":"San Diego County","LAT":32.717403,"LON":-117.152733},{"UNITID":122375,"NAME":"San Diego Mesa College","STREET":"7250 Mesa College Dr","CITY":"San Diego","STATE":"CA","ZIP":"92111-4998","NMCNTY":"San Diego County","LAT":32.803825,"LON":-117.169165},{"UNITID":122384,"NAME":"San Diego Miramar College","STREET":"10440 Black Mountain Rd","CITY":"San Diego","STATE":"CA","ZIP":"92126-2999","NMCNTY":"San Diego County","LAT":32.909757,"LON":-117.120261},{"UNITID":122409,"NAME":"San Diego State University","STREET":"5500 Campanile Dr","CITY":"San Diego","STATE":"CA","ZIP":"92182-0001","NMCNTY":"San Diego County","LAT":32.77525,"LON":-117.071228},{"UNITID":12240901,"NAME":"San Diego State University-Imperial Valley Campus","STREET":"720 Heber Ave","CITY":"Calexico","STATE":"CA","ZIP":"92231","NMCNTY":"Imperial County","LAT":32.672219,"LON":-115.49306},{"UNITID":122436,"NAME":"University of San Diego","STREET":"5998 Alcala Park","CITY":"San Diego","STATE":"CA","ZIP":"92110-2492","NMCNTY":"San Diego County","LAT":32.770816,"LON":-117.192073},{"UNITID":122454,"NAME":"San Francisco Art Institute","STREET":"800 Chestnut St","CITY":"San Francisco","STATE":"CA","ZIP":"94133-2299","NMCNTY":"San Francisco County","LAT":37.803575,"LON":-122.417},{"UNITID":122506,"NAME":"San Francisco Conservatory of Music","STREET":"50 Oak Street","CITY":"San Francisco","STATE":"CA","ZIP":"94102-6011","NMCNTY":"San Francisco County","LAT":37.775543,"LON":-122.420292},{"UNITID":122597,"NAME":"San Francisco State University","STREET":"1600 Holloway Ave","CITY":"San Francisco","STATE":"CA","ZIP":"94132","NMCNTY":"San Francisco County","LAT":37.721224,"LON":-122.476799},{"UNITID":122603,"NAME":"San Francisco Theological Seminary","STREET":"105 Seminary Road","CITY":"San Anselmo","STATE":"CA","ZIP":"94960-0000","NMCNTY":"Marin County","LAT":37.969952,"LON":-122.565407},{"UNITID":122612,"NAME":"University of San Francisco","STREET":"2130 Fulton St","CITY":"San Francisco","STATE":"CA","ZIP":"94117-1080","NMCNTY":"San Francisco County","LAT":37.776618,"LON":-122.450477},{"UNITID":122649,"NAME":"San Joaquin College of Law","STREET":"901 Fifth St","CITY":"Clovis","STATE":"CA","ZIP":"93612-1312","NMCNTY":"Fresno County","LAT":36.82448,"LON":-119.697657},{"UNITID":122658,"NAME":"San Joaquin Delta College","STREET":"5151 Pacific Ave","CITY":"Stockton","STATE":"CA","ZIP":"95207","NMCNTY":"San Joaquin County","LAT":37.995129,"LON":-121.318266},{"UNITID":12265801,"NAME":"San Joaquin General Hospital School of Radiation Technology","STREET":"500 W. Hospital Rd","CITY":"French Camp","STATE":"CA","ZIP":"95231","NMCNTY":"San Joaquin County","LAT":37.886956,"LON":-121.283898},{"UNITID":122685,"NAME":"San Joaquin Valley College-Visalia","STREET":"8344 W Mineral King Ave","CITY":"Visalia","STATE":"CA","ZIP":"93291-9283","NMCNTY":"Tulare County","LAT":36.328049,"LON":-119.384981},{"UNITID":12268501,"NAME":"San Joaquin Valley College - Hanford","STREET":"215 West 7th Street","CITY":"Hanford","STATE":"CA","ZIP":"932304523","NMCNTY":"Kings County","LAT":36.325989,"LON":-119.647978},{"UNITID":12268502,"NAME":"San Joaquin Valley College - Online","STREET":"8344 W. Mineral King Blvd.","CITY":"Visalia","STATE":"CA","ZIP":"932914523","NMCNTY":"Tulare County","LAT":36.328054,"LON":-119.384986},{"UNITID":12268503,"NAME":"San Joaquin Valley College - Bakersfield","STREET":"201 New Stine Rd.","CITY":"Bakersfield","STATE":"CA","ZIP":"933094523","NMCNTY":"Kern County","LAT":35.352778,"LON":-119.062106},{"UNITID":12268504,"NAME":"San Joaquin Valley College - Fresno","STREET":"295 E Sierra Ave","CITY":"Fresno","STATE":"CA","ZIP":"937103616","NMCNTY":"Fresno County","LAT":36.829902,"LON":-119.784114},{"UNITID":12268505,"NAME":"San Joaquin Valley College - Fresno Trades Education Center","STREET":"4985 E Anderson Ave","CITY":"Fresno","STATE":"CA","ZIP":"937273616","NMCNTY":"Fresno County","LAT":36.776817,"LON":-119.728209},{"UNITID":12268506,"NAME":"San Joaquin Valley College - Ontario","STREET":"4580 Ontario Mills Parkway","CITY":"Ontario","STATE":"CA","ZIP":"917643616","NMCNTY":"San Bernardino County","LAT":34.068559,"LON":-117.550373},{"UNITID":12268507,"NAME":"San Joaquin Valley College - Modesto","STREET":"5380 Pirrone Rd.","CITY":"Salida","STATE":"CA","ZIP":"953683616","NMCNTY":"Stanislaus County","LAT":37.717409,"LON":-121.092925},{"UNITID":12268508,"NAME":"San Joaquin Valley College - Rancho Cordova","STREET":"11000 Olson Dr Ste 100","CITY":"Rancho Cordova","STATE":"CA","ZIP":"956703616","NMCNTY":"Sacramento County","LAT":38.59666,"LON":-121.280263},{"UNITID":12268510,"NAME":"San Joaquin Valley College - Hesperia","STREET":"9331 Mariposa Rd","CITY":"Hesperia","STATE":"CA","ZIP":"923443616","NMCNTY":"San Bernardino County","LAT":34.420664,"LON":-117.383128},{"UNITID":12268511,"NAME":"San Joaquin Valley College - Temecula","STREET":"27270 Madison Ave Ste 103","CITY":"Temecula","STATE":"CA","ZIP":"925903616","NMCNTY":"Riverside County","LAT":33.525836,"LON":-117.166519},