UNITID,NAME,STREET,CITY,STATE,ZIP,NMCNTY,LAT,LON
101480,Jacksonville State University,700 Pelham Road North,Jacksonville,AL,36265,Calhoun County,33.822938,-85.765321
102553,University of Alaska Anchorage,3211 Providence Drive,Anchorage,AK,99508,Anchorage Municipality,61.190163,-149.82619
102669,Alaska Pacific University,4101 University Dr,Anchorage,AK,99508,Anchorage Municipality,61.190968,-149.804168
103501,Alaska Career College,1415 E Tudor Road,Anchorage,AK,99507-1033,Anchorage Municipality,61.181443,-149.856954
103741,Empire Beauty School-Tucson,3030 E Speedway Blvd,Tucson,AZ,85716,Pima County,32.235657,-110.927187
103893,Carrington College-Phoenix North,8503 N. 27th Ave.,Phoenix,AZ,85051-4063,Maricopa County,33.561689,-112.116105
103909,Carrington College-Mesa,"1001 W. Southern Ave., Ste. 130",Mesa,AZ,85210,Maricopa County,33.39248,-111.853218
103927,Carrington College-Tucson,"201 N. Bonita Ave., Ste. 101",Tucson,AZ,85745,Pima County,32.224391,-110.983056
103954,Arizona Academy of Beauty-East,5631 E Speedway Blvd,Tucson,AZ,85712,Pima County,32.237253,-110.872305
103963,Platt College-Arizona Automotive Institute Arizona,6829 N 46th Ave,Glendale,AZ,85301-3579,Maricopa County,33.537249,-112.157344
104090,Brookline College-Phoenix,"2445 W. Dunlap Ave., Ste. 100",Phoenix,AZ,85021,Maricopa County,33.566102,-112.112473
104179,University of Arizona,1401 E University,Tucson,AZ,85721-0066,Pima County,32.232672,-110.950815
104188,Southwest University of Visual Arts-Tucson,2525 N Country Club Rd,Tucson,AZ,85716,Pima County,32.252879,-110.927265
104504,Cortiva Institute-Tucson,"6390 E. Broadway, Suite 100",Tucson,AZ,85710,Pima County,32.21901,-110.856785
104568,Avalon School of Cosmetology-Mesa,2111 S Alma School Rd Ste 21,Mesa,AZ,85210,Maricopa County,33.376583,-111.858305
104665,School of Architecture at Taliesin,12621 N. Frank Lloyd Wright Blvd,Scottsdale,AZ,85259,Maricopa County,33.607097,-111.845411
104708,Glendale Community College,6000 W Olive Ave,Glendale,AZ,85302,Maricopa County,33.570226,-112.190735
104717,Grand Canyon University,3300 W Camelback Rd,Phoenix,AZ,85017,Maricopa County,33.513231,-112.129929
105145,GateWay Community College,108 N. 40th Street,Phoenix,AZ,85034,Maricopa County,33.449686,-111.997077
105154,Mesa Community College,1833 W Southern Ave,Mesa,AZ,85202,Maricopa County,33.390323,-111.871255
105215,Universal Technical Institute of Arizona Inc-Motorcycle Mechanics Institute Division,2844 W Deer Valley Rd,Phoenix,AZ,85027,Maricopa County,33.684428,-112.121336
105367,Ottawa University-Phoenix,9414 North 25th Avenue,Phoenix,AZ,85021,Maricopa County,33.572173,-112.113001
105428,Phoenix College,1202 W Thomas Rd,Phoenix,AZ,85013,Maricopa County,33.481361,-112.088293
105482,Cortiva Institute-Scottsdale,8010 East McDowell Road #214,Scottsdale,AZ,85257,Maricopa County,33.466153,-111.90807
105525,Pima Community College,4905C East  Broadway Blvd.,Tucson,AZ,85709-1275,Pima County,32.222125,-110.886659
105534,Pima Medical Institute-Tucson,"2121 N Craycroft Road, Bldg 1",Tucson,AZ,85712,Pima County,32.248067,-110.878783
105543,Pima Medical Institute-Albuquerque,4400 Cutler Avenue NE,Albuquerque,NM,87110,Bernalillo County,35.104855,-106.59488
105659,Refrigeration School Inc,4210 E Washington Street,Phoenix,AZ,85034-1816,Maricopa County,33.448692,-111.989357
105677,Roberto-Venn School of Luthiery,1012 NW Grand Ave,Phoenix,AZ,85007,Maricopa County,33.45489,-112.086161
105747,Scottsdale Community College,9000 E Chaparral Rd,Scottsdale,AZ,85256,Maricopa County,33.51135,-111.885186
105792,South Mountain Community College,7050 S 24th St,Phoenix,AZ,85042,Maricopa County,33.382406,-112.032635
105899,Arizona Christian University,1 W. Firestorm Way,Glendale,AZ,85306-3216,Maricopa County,33.622952,-112.181776
106111,Empire Beauty School-NW Phoenix,2727 W. Glendale Ave. #200,Phoenix,AZ,85051,Maricopa County,33.538093,-112.118168
106494,Arthur's Beauty College Inc-Jacksonville,2600 John Harden Dr,Jacksonville,AR,72076,Pulaski County,34.891572,-92.102579
10704401,Harding School of Theology,1000 Cherry Road,Memphis,TN,381175499,Shelby County,35.10413,-89.914472
108232,Academy of Art University,79 New Montgomery,San Francisco,CA,94105,San Francisco County,37.787943,-122.400578
108269,Academy of Chinese Culture and Health Sciences,"1600 Broadway, Ste. 200",Oakland,CA,94612,Alameda County,37.805972,-122.269839
108852,American Academy of Dramatic Arts-Los Angeles,1336 North La Brea Avenue,Los Angeles,CA,90028,Los Angeles County,34.095378,-118.343701
108861,American Baptist Seminary of the West,2606 Dwight Way,Berkeley,CA,94704-3029,Alameda County,37.865252,-122.256149
108870,American Film Institute Conservatory,2021 N Western Ave,Los Angeles,CA,90027-1625,Los Angeles County,34.10767,-118.310018
109040,American Career College-Los Angeles,4021 Rosewood Avenue,Los Angeles,CA,90004,Los Angeles County,34.079323,-118.292481
109086,American Conservatory Theater,30 Grant Ave,San Francisco,CA,94108-5834,San Francisco County,37.787343,-122.40475
109208,American River College,4700 College Oak Dr,Sacramento,CA,95841-4286,Sacramento County,38.65085,-121.349672
109721,Associated Technical College-Los Angeles,1670 Wilshire Blvd,Los Angeles,CA,90017-1604,Los Angeles County,34.056102,-118.272364
109730,Associated Technical College-San Diego,707 Broadway-Ste 300,San Diego,CA,92101,San Diego County,32.715375,-117.157988
109819,Bakersfield College,1801 Panorama Dr,Bakersfield,CA,93305-1299,Kern County,35.40911,-118.973753
109934,Bellus Academy-Chula Vista,"970 Broadway, Suite 110",Chula Vista,CA,91911,San Diego County,32.614773,-117.083738
110060,Bethesda University,730 N. Euclid St,Anaheim,CA,92801,Orange County,33.842295,-117.941323
110194,Brownson Technical School,1110 Technology Cir Ste D,Anaheim,CA,92805,Orange County,33.819032,-117.905774
110316,California Institute of Integral Studies,1453 Mission Street,San Francisco,CA,94103,San Francisco County,37.774924,-122.416102
110361,California Baptist University,8432 Magnolia Ave,Riverside,CA,92504-3297,Riverside County,33.929321,-117.425619
110370,California College of the Arts,1111 Eighth Street,San Francisco,CA,94107-2247,San Francisco County,37.767485,-122.399451
110398,University of California-Hastings College of Law,200 McAllister Street,San Francisco,CA,94102-4978,San Francisco County,37.781137,-122.4157
110468,Alliant International University-San Diego,10455 Pomerado Road,San Diego,CA,92131,San Diego County,32.897056,-117.094398
11046801,Alliant International University-Fresno,5130 East Clinton Way,Fresno,CA,937272014,Fresno County,36.766789,-119.721681
11046803,Alliant International University-San Francisco,1475 66th Street,Emeryville,CA,946081221,Alameda County,37.847164,-122.2932
11046804,Alliant International University-Irvine,"Jamboree Business Center, 2855 Michelle Drive, Suite 300",Irvine,CA,926061221,Orange County,33.719624,-117.798177
11046805,Alliant International University-Sacramento,"2030 West El Camino Ave., Suite 200",Sacramento,CA,958331221,Sacramento County,38.613615,-121.509313
11046806,SAN FRANCISCO LAW SCHOOL,1475 66th Street,Emeryville,CA,94608,Alameda County,37.847164,-122.2932
110486,California State University-Bakersfield,9001 Stockdale Hwy,Bakersfield,CA,93311-1099,Kern County,35.350005,-119.104711
110501,California State University-Chancellors Office,"Institutional Research & Analyses 401 Golden Shore, 6th Floor",Long Beach,CA,90802-4210,Los Angeles County,33.764338,-118.201255
110556,California State University-Fresno,5241 N Maple Ave,Fresno,CA,93740,Fresno County,36.811154,-119.744569
110565,California State University-Fullerton,800 N State College Blvd,Fullerton,CA,92831-3599,Orange County,33.881506,-117.885446
110583,California State University-Long Beach,1250 Bellflower Blvd,Long Beach,CA,90840-0115,Los Angeles County,33.782818,-118.11204
110592,California State University-Los Angeles,5151 State University Dr,Los Angeles,CA,90032-8506,Los Angeles County,34.066927,-118.168965
110608,California State University-Northridge,18111 Nordhoff St,Northridge,CA,91330,Los Angeles County,34.240126,-118.529319
110617,California State University-Sacramento,6000 J St,Sacramento,CA,95819-2694,Sacramento County,38.559415,-121.423549
110635,University of California-Berkeley,200 California Hall,Berkeley,CA,94720,Alameda County,37.871918,-122.260463
110653,University of California-Irvine,501 Aldrich Hall,Irvine,CA,92697,Orange County,33.648434,-117.841248
110662,University of California-Los Angeles,405 Hilgard Ave,Los Angeles,CA,90095-1405,Los Angeles County,34.068892,-118.443901
110671,University of California-Riverside,900 University Ave,Riverside,CA,92521,Riverside County,33.97246,-117.32741
110680,University of California-San Diego,9500 Gilman Dr,La Jolla,CA,92093,San Diego County,32.877749,-117.235866
110699,University of California-San Francisco,500 Parnassus Ave,San Francisco,CA,94143-0244,San Francisco County,37.763737,-122.458489
110918,California Christian College,5364 E. Belmont Avenue,Fresno,CA,93727,Fresno County,36.749366,-119.711123
111391,California Western School of Law,225 Cedar St,San Diego,CA,92101-3046,San Diego County,32.722192,-117.162416
111708,CET-San Diego,4153 Market Street,San Diego,CA,92102,San Diego County,32.711302,-117.105328
111717,CET-San Jose,701 Vine St,San Jose,CA,95110,Santa Clara County,37.322723,-121.88698
111966,Charles R Drew University of Medicine and Science,1731 E 120th St,Los Angeles,CA,90059,Los Angeles County,33.925658,-118.242791
112075,Concordia University-Irvine,1530 Concordia West,Irvine,CA,92612-3203,Orange County,33.653665,-117.812305
112093,Stockton Christian Life College,9023 West Lane,Stockton,CA,95210-1401,San Joaquin County,38.029827,-121.296258
112127,Church Divinity School of the Pacific,2451 Ridge Road,Berkeley,CA,94709-1211,Alameda County,37.876184,-122.261122
112190,City College of San Francisco,50 Frida Kahlo Drive,San Francisco,CA,94112-1898,San Francisco County,37.725953,-122.451155
112394,Cogswell College,191 Baypointe Parkway,San Jose,CA,95134,Santa Clara County,37.414049,-121.94087
112455,Coba Academy,663 N. Euclid Street,Anaheim,CA,92801,Orange County,33.841141,-117.943108
112570,Columbia College Hollywood,18618 Oxnard St,Tarzana,CA,91356-1411,Los Angeles County,34.17972,-118.538793
11257001,Flashpoint Chicago A Campus of Columbia College Hollywood,28 North Clark Street,Chicago,IL,606022716,Cook County,41.882848,-87.631154
113096,Cosumnes River College,8401 Center Parkway,Sacramento,CA,95823-5799,Sacramento County,38.45295,-121.423108
113582,Design Institute of San Diego,8555 Commerce Ave,San Diego,CA,92121,San Diego County,32.880926,-117.167374
113704,Dominican School of Philosophy & Theology,2301 Vine Street,Berkeley,CA,94708-1816,Alameda County,37.881099,-122.264612
114266,Evergreen Valley College,3095 Yerba Buena Rd,San Jose,CA,95135-1598,Santa Clara County,37.30167,-121.76561
114354,FIDM-Fashion Institute of Design & Merchandising-Los Angeles,919 S Grand Ave,Los Angeles,CA,90015-1421,Los Angeles County,34.044209,-118.25993
11435401,FIDM-Fashion Institute of Design & Merchandising-Orange County,17590 Gillette Avenue,Irvine,CA,926145610,Orange County,33.692074,-117.852147
11435402,FIDM-Fashion Institute of Design & Merchandising-San Diego,"350 Tenth Avenue, Third Floor",San Diego,CA,921014903,San Diego County,32.708915,-117.155908
114390,FIDM-Fashion Institute of Design & Merchandising-San Francisco,55 Stockton St,San Francisco,CA,94108-5805,San Francisco County,37.786353,-122.406651
114415,FIDM-Fashion Institute of Design & Merchandising-Orange County,17590 Gillette Avenue,Irvine,CA,92614-5610,Orange County,33.691963,-117.852254
114460,Federico Beauty Institute,1515 Sports Drive    Ste 100,Sacramento,CA,95834,Sacramento County,38.64883,-121.497761
11458501,San Jose Campus,"1885 Lundy Avenue, Suite 108",San Jose,CA,95131,Santa Clara County,37.393096,-121.891583
11473402,Franciscan School of Theology - San Diego,5998 Alcala Park,San Diego,CA,921102492,San Diego County,32.772407,-117.191964
114789,Fresno City College,1101 E. University Ave,Fresno,CA,93741,Fresno County,36.768164,-119.796096
114813,Fresno Pacific University,1717 S Chestnut Ave,Fresno,CA,93702-4709,Fresno County,36.726831,-119.735199
114859,Fullerton College,321 E Chapman Avenue,Fullerton,CA,92832-2095,Orange County,33.875514,-117.918255
115001,Glendale Community College,1500 N Verdugo Rd,Glendale,CA,91208-2894,Los Angeles County,34.16745,-118.227666
115010,Glendale Career College,240 North Brand Boulevard Lower Level,Glendale,CA,91203,Los Angeles County,34.149771,-118.254719
115083,Golden Gate University-San Francisco,536 Mission Street,San Francisco,CA,94105-2968,San Francisco County,37.789374,-122.398969
11508305,Golden Gate University-Seattle,"1424 4th Avenue, Suite 410",Seattle,WA,981012218,King County,47.610138,-122.336135
115214,Graduate Theological Union,2400 Ridge Rd,Berkeley,CA,94709,Alameda County,37.87554,-122.261847
115357,Salon Success Academy-Riverside,6780 Indiana Ave. Ste #200,Riverside,CA,92506,Riverside County,33.943149,-117.391024
115728,Holy Names University,3500 Mountain Blvd,Oakland,CA,94619-1699,Alameda County,37.802276,-122.187804
115773,Humphreys University-Stockton and Modesto Campuses,6650 Inglewood Ave,Stockton,CA,95207-3896,San Joaquin County,38.011489,-121.316918
116439,Irvine Valley College,5500 Irvine Center Drive,Irvine,CA,92618-0301,Orange County,33.675381,-117.777539
116846,American Jewish University,15600 Mulholland Dr,Los Angeles,CA,90077-1519,Los Angeles County,34.128153,-118.471706
117247,Laney College,900 Fallon Sreet,Oakland,CA,94607,Alameda County,37.797257,-122.26283
117548,Lincoln Law School of Sacramento,3140 J Street,Sacramento,CA,95816,Sacramento County,38.57216,-121.464021
117557,Lincoln University,401 15th Street,Oakland,CA,94612-2801,Alameda County,37.804788,-122.269745
117627,La Sierra University,4500 Riverwalk Parkway,Riverside,CA,92505-8247,Riverside County,33.910704,-117.500054
117645,Long Beach City College,4901 E. Carson St.,Long Beach,CA,90808-1706,Los Angeles County,33.833593,-118.135633
117681,Los Angeles Community College District Office,770 Wilshire Blvd,Los Angeles,CA,90017,Los Angeles County,34.048969,-118.258047
117706,Los Angeles Pierce College,6201 Winnetka Ave,Woodland Hills,CA,91371-0002,Los Angeles County,34.183949,-118.575071
117715,Los Angeles Southwest College,1600 W. Imperial Hwy.,Los Angeles,CA,90047-4899,Los Angeles County,33.929586,-118.304674
117724,Los Angeles Trade Technical College,400 W Washington Blvd,Los Angeles,CA,90015-4181,Los Angeles County,34.031907,-118.269447
117788,Los Angeles City College,855 N Vermont Ave,Los Angeles,CA,90029,Los Angeles County,34.087301,-118.292169
117803,Los Angeles County College of Nursing and Allied Health,1237 N. Mission Rd.,Los Angeles,CA,90033-1084,Los Angeles County,34.062647,-118.211852
117867,Los Angeles Mission College,13356 Eldridge Avenue,Sylmar,CA,91342-3200,Los Angeles County,34.314668,-118.4195
117900,Los Rios Community College District Office,1919 Spanos Ct,Sacramento,CA,95825-3981,Sacramento County,38.579859,-121.417145
117946,Loyola Marymount University,One Lmu Drive,Los Angeles,CA,90045-2659,Los Angeles County,33.97085,-118.415744
118134,Lyle's College of Beauty,2935 F St,Bakersfield,CA,93301,Kern County,35.386539,-119.02387
118143,Lyle's College of  Beauty,6735 N First Ave Ste 112,Fresno,CA,93710,Fresno County,36.836265,-119.774167
118189,MTI Business College Inc,6006 N. El Dorado Street,Stockton,CA,95207-4349,San Joaquin County,38.007885,-121.308445
118198,MTI College,5221 Madison Avenue,Sacramento,CA,95841-9817,Sacramento County,38.661377,-121.342568
11854101,Marymount University - Waterfront Campus,222 West Sixth Street,San Pedro,CA,907313316,Los Angeles County,33.738991,-118.281861
118772,Merritt College,12500 Campus Dr,Oakland,CA,94619-3196,Alameda County,37.789088,-122.167335
118888,Mills College,5000 MacArthur Blvd,Oakland,CA,94613,Alameda County,37.781425,-122.182294
118994,Moler Barber College,3815 Telegraph Ave,Oakland,CA,94609-2419,Alameda County,37.827075,-122.265352
119173,Mount Saint Mary's University,12001 Chalon Rd,Los Angeles,CA,90049-1599,Los Angeles County,34.085315,-118.482879
11917301,Mount Saint Mary's University - Doheny Campus,10 Chester Place,Los Angeles,CA,90007,Los Angeles County,34.030668,-118.277012
119553,National Holistic Institute,5900 Doyle Street,Emeryville,CA,94608-2008,Alameda County,37.841898,-122.287672
119605,National University,11255 North Torrey Pines Road,La Jolla,CA,92037-1011,San Diego County,32.909894,-117.243026
119775,Newschool of Architecture and Design,1249 F St,San Diego,CA,92101,San Diego County,32.71331,-117.153305
119845,Newberry School of Beauty,16860 Devonshire Blvd,Granada Hills,CA,91344-7401,Los Angeles County,34.256683,-118.499693
120023,North Orange County Community College District,1830 W. Romneya Drive,Anaheim,CA,92801-1819,Orange County,33.849957,-117.945559
120254,Occidental College,1600 Campus Rd,Los Angeles,CA,90041-3392,Los Angeles County,34.127124,-118.210908
120403,Otis College of Art and Design,9045 Lincoln Blvd,Los Angeles,CA,90045-3505,Los Angeles County,33.956607,-118.416615
120537,Hope International University,2500 E Nutwood Ave,Fullerton,CA,92831-3199,Orange County,33.87616,-117.88573
120661,Concorde Career College-San Diego,"4393 Imperial Avenue, Suite 100",San Diego,CA,92113-1964,San Diego County,32.702814,-117.102845
120795,Pacific School of Religion,1798 Scenic Ave,Berkeley,CA,94709,Alameda County,37.87669,-122.263155
120838,Pacific States University,3424 Wilshire Blvd. 12th floor,Los Angeles,CA,90010-2263,Los Angeles County,34.061315,-118.298408
120883,University of the Pacific,3601 Pacific Ave,Stockton,CA,95211-0197,San Joaquin County,37.981424,-121.312301
121178,Peralta Community College System Office,333 E Eighth St,Oakland,CA,94606,Alameda County,37.792667,-122.260837
121275,Platt College-San Diego,6250 El Cajon Blvd,San Diego,CA,92115-3919,San Diego County,32.76373,-117.063483
121309,Point Loma Nazarene University,3900 Lomaland Dr,San Diego,CA,92106-2899,San Diego County,32.718391,-117.250265
121619,Santa Ana College,1530 W. 17th Street,Santa Ana,CA,92706-3398,Orange County,33.759309,-117.887558
121868,Salon Success Academy-Corona,2097 Compton Ave. Suite 201,Corona,CA,92881,Riverside County,33.847649,-117.535638
121901,Riverside City College,4800 Magnolia Avenue,Riverside,CA,92506,Riverside County,33.970918,-117.384323
122117,Dongguk University-Los Angeles,440 Shatto Pl,Los Angeles,CA,90020-1704,Los Angeles County,34.06597,-118.289523
122180,Sacramento City College,3835 Freeport Blvd,Sacramento,CA,95822-1386,Sacramento County,38.541096,-121.491139
122296,Samuel Merritt University,3100 Telegraph Avenue,Oakland,CA,94609,Alameda County,37.82029,-122.266331
122320,San Diego Community College District-District Office,3375 Camino del Rio South,San Diego,CA,92108,San Diego County,32.776275,-117.120504
122339,San Diego City College,1313 Park Boulevard,San Diego,CA,92101-4787,San Diego County,32.717403,-117.152733
122375,San Diego Mesa College,7250 Mesa College Dr,San Diego,CA,92111-4998,San Diego County,32.803825,-117.169165
122384,San Diego Miramar College,10440 Black Mountain Rd,San Diego,CA,92126-2999,San Diego County,32.909757,-117.120261
122409,San Diego State University,5500 Campanile Dr,San Diego,CA,92182-0001,San Diego County,32.77525,-117.071228
122436,University of San Diego,5998 Alcala Park,San Diego,CA,92110-2492,San Diego County,32.770816,-117.192073
122454,San Francisco Art Institute,800 Chestnut St,San Francisco,CA,94133-2299,San Francisco County,37.803575,-122.417
122506,San Francisco Conservatory of Music,50 Oak Street,San Francisco,CA,94102-6011,San Francisco County,37.775543,-122.420292
122597,San Francisco State University,1600 Holloway Ave,San Francisco,CA,94132,San Francisco County,37.721224,-122.476799
122612,University of San Francisco,2130 Fulton St,San Francisco,CA,94117-1080,San Francisco County,37.776618,-122.450477
122658,San Joaquin Delta College,5151 Pacific Ave,Stockton,CA,95207,San Joaquin County,37.995129,-121.318266
12268503,San Joaquin Valley College - Bakersfield,201 New Stine Rd.,Bakersfield,CA,933094523,Kern County,35.352778,-119.062106
12268504,San Joaquin Valley College - Fresno,295 E Sierra Ave,Fresno,CA,937103616,Fresno County,36.829902,-119.784114
12268505,San Joaquin Valley College - Fresno Trades Education Center,4985 E Anderson Ave,Fresno,CA,937273616,Fresno County,36.776817,-119.728209
12268513,San Joaquin Valley College - San Diego,333 H Street Suite 1065,Chula Vista,CA,919105557,San Diego County,32.63446,-117.078511
122737,San Jose-Evergreen Community College District,40 South Market Street,San Jose,CA,95113-1599,Santa Clara County,37.334851,-121.89118
122746,San Jose City College,2100 Moorpark Ave,San Jose,CA,95128-2798,Santa Clara County,37.315827,-121.926185
122755,San Jose State University,One Washington Square,San Jose,CA,95192-0001,Santa Clara County,37.336569,-121.880621
122834,Santa Barbara Business College-Bakersfield,5300 California Avenue,Bakersfield,CA,93309,Kern County,35.359544,-119.061264
12293101,Jesuit School of Theology of Santa Clara University,1735 LeRoy Ave,Berkeley,CA,94709,Alameda County,37.877591,-122.258512
123448,Trinity Law School,2200 N Grand Ave,Santa Ana,CA,92705,Orange County,33.766071,-117.852059
123493,Charles A Jones Career and Education Center,5451 Lemon Hill Ave,Sacramento,CA,95824-1529,Sacramento County,38.516233,-121.440796
123633,South Baylo University,1126 N Brookhurst St,Anaheim,CA,92801-1701,Orange County,33.848216,-117.958727
123800,Southwestern College,900 Otay Lakes Rd.,Chula Vista,CA,91910-7299,San Diego County,32.640281,-116.996803
123916,Starr King School for the Ministry,2441 Le Conte Avenue,Berkeley,CA,94709-1209,Alameda County,37.876939,-122.261778
123925,State Center Community College District,1171 Fulton Street,Fresno,CA,93721,Fresno County,36.735642,-119.792324
123943,Marshall B Ketchum University,2575 Yorba Linda Blvd,Fullerton,CA,92831-1699,Orange County,33.889348,-117.886229
123952,Southern California Institute of Architecture,960 E. 3rd Street,Los Angeles,CA,90013-1822,Los Angeles County,34.044215,-118.232799
123961,University of Southern California,University Park,Los Angeles,CA,90089,Los Angeles County,34.021281,-118.284169
123970,Southwestern Law School,3050 Wilshire Boulevard,Los Angeles,CA,90010-1106,Los Angeles County,34.061558,-118.288375
124487,Epic Bible College,4330 Auburn Boulevard,Sacramento,CA,95841,Sacramento County,38.645152,-121.362642
124557,University of California-System Administration Central Office,1111 Franklin St,Oakland,CA,94607-5200,Alameda County,37.802222,-122.27134
124937,Concorde Career College-North Hollywood,12412 Victory Boulevard,North Hollywood,CA,91606-3134,Los Angeles County,34.186407,-118.403627
125170,Berkeley City College,2050 Center Sreet,Berkeley,CA,94704,Alameda County,37.869769,-122.269877
125231,Walden University,"100 Washington Avenue South, Suite 900",Minneapolis,MN,55401,Hennepin County,44.98125,-93.265738
125532,Carrington College-Sacramento,8909 Folsom Blvd.,Sacramento,CA,95826,Sacramento County,38.556151,-121.371331
126012,The Wright Institute,2728 Durant Ave,Berkeley,CA,94704-1796,Alameda County,37.868221,-122.253168
12601201,Wright Institute (The) -,2501 9th Street,Berkeley,CA,947102254,Alameda County,37.860543,-122.291518
126049,Thomas Jefferson School of Law,701 B Street - Suite 110,San Diego,CA,92101,San Diego County,32.717595,-117.157862
126076,Yeshiva Ohr Elchonon Chabad West Coast Talmudical Seminary,7215 Waring Ave,Los Angeles,CA,90046-7660,Los Angeles County,34.085465,-118.346613
126289,Arapahoe Community College,5900 S. Santa Fe Dr.,Littleton,CO,80160-9002,Arapahoe County,39.607505,-105.018631
126359,Bel-Rea Institute of Animal Technology,1681 S Dayton St,Denver,CO,80247,Arapahoe County,39.686194,-104.876207
126562,University of Colorado Denver/Anschutz Medical Campus,"1380 Lawrence Street, Lawrence Street Center, Suite 1400",Denver,CO,80217-3364,Adams County,39.745149,-104.837722
126580,University of Colorado Colorado Springs,1420 Austin Bluffs Parkway,Colorado Springs,CO,80918,El Paso County,38.892735,-104.800296
126678,Colorado College,14. E Cache La Poudre St.,Colorado Springs,CO,80903,El Paso County,38.84886,-104.822697
126687,Concorde Career College-Aurora,111 N. Havana Street,Aurora,CO,80010-4314,Arapahoe County,39.718699,-104.867089
126827,Colorado Technical University-Colorado Springs,4435 N Chestnut Street,Colorado Springs,CO,80907-3812,El Paso County,38.894265,-104.833928
12682703,Colorado Technical University-Denver,3151 S Vaughn Way,Aurora,CO,80014,Arapahoe County,39.659452,-104.838624
126863,Community College of Aurora,16000 E CentreTech Pky,Aurora,CO,80011-9036,Arapahoe County,39.71788,-104.802673
126872,CollegeAmerica-Denver,"1385 S Colorado Blvd., 5th Floor",Denver,CO,80222,Denver County,39.691571,-104.941168
126942,Community College of Denver,1111 W. Colfax Ave.,Denver,CO,80204-2026,Denver County,39.741413,-105.001044
126951,Lincoln College of Technology-Denver,11194 E 45th Ave,Denver,CO,80239,Denver County,39.77651,-104.856171
126979,Denver Seminary,6399 S. Santa Fe Drive,Littleton,CO,80120,Arapahoe County,39.600595,-105.022363
127060,University of Denver,2199 S. University Blvd,Denver,CO,80208,Denver County,39.678005,-104.963259
127158,Emily Griffith Technical College,1860 Lincoln Street,Denver,CO,80203,Denver County,39.74575,-104.985751
127273,Iliff School of Theology,2323 E. Iliff Ave.,Denver,CO,80210-4798,Denver County,39.675927,-104.960657
127316,International Salon and Spa Academy,5707 N Academy Blvd,Colorado Springs,CO,80918-3684,El Paso County,38.913621,-104.786252
127565,Metropolitan State University of Denver,Speer Blvd and Colfax Ave,Denver,CO,80217-3362,Denver County,39.744202,-105.00504
127714,Nazarene Bible College,1465 Kelly Johnson Blvd,Colorado Springs,CO,80920,El Paso County,38.944824,-104.803251
127820,Pikes Peak Community College,5675 S Academy Blvd,Colorado Springs,CO,80906-5498,El Paso County,38.764287,-104.787261
127918,Regis University,3333 Regis Blvd,Denver,CO,80221-1099,Denver County,39.788175,-105.030756
128151,Pickens Technical College,500 Airport Blvd,Aurora,CO,80011-9307,Arapahoe County,39.723705,-104.789683
128179,Intellitec College-Colorado Springs,2315 East Pikes Peak Avenue,Colorado Springs,CO,80909-6096,El Paso County,38.832183,-104.78721
128300,University of Colorado System Office,1800 Grant St,Denver,CO,80203-1187,Denver County,39.74521,-104.983277
130873,Dawn Career Institute LLC,"252 Chapman Road, Suite 100",Newark,DE,19702,New Castle County,39.668605,-75.677768
130943,University of Delaware,104 Hullihen Hall,Newark,DE,19716,New Castle County,39.679577,-75.752822
131061,Schilling-Douglas School of Hair Design LLC,211 Louviers Drive,Newark,DE,19711,New Castle County,39.711442,-75.74178
132471,Barry University,11300 NE 2nd Ave,Miami,FL,33161-6695,Miami-Dade County,25.878908,-80.198925
13247101,Barry University Law School,6441 East Colonial Drive,Orlando,FL,328073673,Orange County,28.56707,-81.3014
132842,Carlos Albizu University-Miami,2173 N.W. 99th Avenue,Miami,FL,33172-2209,Miami-Dade County,25.794178,-80.356315
132903,University of Central Florida,4000 Central Florida Blvd,Orlando,FL,32816,Orange County,28.602159,-81.200889
133492,Eckerd College,4200 54th Ave S,Saint Petersburg,FL,33711-4700,Pinellas County,27.715798,-82.687043
133526,Edward Waters College,1658 Kings Rd,Jacksonville,FL,32209,Duval County,30.34479,-81.684879
133702,Florida State College at Jacksonville,501 W State St,Jacksonville,FL,32202,Duval County,30.334918,-81.659901
133845,Concorde Career Institute-Jacksonville,7259 Salisbury Road,Jacksonville,FL,32256-6905,Duval County,30.23886,-81.581748
133863,Concorde Career Institute-Tampa,4202 W Spruce,Tampa,FL,33607-4127,Hillsborough County,27.959148,-82.514341
133872,AdventHealth University,671 Winyah Drive,Orlando,FL,32803,Orange County,28.576142,-81.367687
133951,Florida International University,11200 S. W. 8 Street,Miami,FL,33199,Miami-Dade County,25.75732,-80.373928
133997,Florida Career College-Miami,"1321 SW 107 Avenue, Suite 201B",Miami,FL,33174,Miami-Dade County,25.756567,-80.36778
134112,Florida Technical College,12900 Challenger Parkway,Orlando,FL,32826,Orange County,28.573275,-81.196503
134307,George T Baker Aviation Technical College,3275 NW 42nd Ave,Miami,FL,33142,Miami-Dade County,25.804092,-80.263591
134495,Hillsborough Community College,39 Columbia Drive,Tampa,FL,33606-3584,Hillsborough County,27.934888,-82.456253
134811,AI Miami International University of Art and Design,"1501 Biscayne Boulevard, Suite 100",Miami,FL,33132-1418,Miami-Dade County,25.790008,-80.18839
134945,Jacksonville University,2800 University Blvd N,Jacksonville,FL,32211-3394,Duval County,30.353227,-81.60458
13508105,Keiser University- Miami,2101 NW 117 Avenue,Miami,FL,33172,Miami-Dade County,25.793574,-80.384129
13508106,Keiser University-Orlando,5600 Lake Underhill Rd,Orlando,FL,32807,Orange County,28.538123,-81.311924
13508108,Keiser University-Jacksonville,"6430 Southpoint Parkway, Suite 100",Jacksonville,FL,32216,Duval County,30.25906,-81.602771
13508109,Keiser University-Tampa,5002 West Waters Avenue,Tampa,FL,33634,Hillsborough County,28.02461,-82.529401
135294,Lindsey Hopkins Technical College,750 NW 20 Street,Miami,FL,33127,Miami-Dade County,25.794676,-80.208154
135337,Loraines Academy & Spa,1012 58th St N,Saint Petersburg,FL,33710,Pinellas County,27.783077,-82.713964
135610,Trinity International University-Florida,"9010 SW 137th Ave,m Suite #101",Miami,FL,33186,Miami-Dade County,25.68307,-80.417646
135717,Miami Dade College,300 NE 2nd Avenue,Miami,FL,33132-2204,Miami-Dade County,25.777717,-80.190856
135735,Orange Technical College-Mid Florida Campus,2900 West Oak Ridge Road,Orlando,FL,32809,Orange County,28.471695,-81.415996
135771,Beauty Schools of America-Miami,1176 SW 67th Avenue,Miami,FL,33144,Miami-Dade County,25.759918,-80.304459
136109,Paul Mitchell the School-Jacksonville,"4624 Town Crossing Drive, Suite 155",Jacksonville,FL,32246,Duval County,30.259433,-81.527515
136145,North Florida College,325 NW Turner Davis Dr,Madison,FL,32340,Madison County,30.473841,-83.420732
136172,University of North Florida,1 UNF Drive,Jacksonville,FL,32224-7699,Duval County,30.27194,-81.509144
136303,Orange Technical College-Orlando Campus,301 W Amelia Street,Orlando,FL,32801-1197,Orange County,28.550422,-81.383783
136826,Robert Morgan Educational Center and Technical College,18180 SW 122nd Ave,Miami,FL,33177-2407,Miami-Dade County,25.599247,-80.390054
137087,Pinellas Technical College-St. Petersburg,901 34th St S,Saint Petersburg,FL,33711-2209,Pinellas County,27.761183,-82.681534
137272,Saint John Vianney College Seminary,2900 SW 87th Ave,Miami,FL,33165-3244,Miami-Dade County,25.742579,-80.337411
137351,University of South Florida-Main Campus,4202 East Fowler Ave,Tampa,FL,33620-9951,Hillsborough County,28.061458,-82.413232
137713,Riveroak Technical College,415 SW Pinewood Dr,Live Oak,FL,32064,Suwannee County,30.281999,-82.992512
137801,Altierus Career College-Tampa,3319 W Hillsborough Ave,Tampa,FL,33614-5801,Hillsborough County,27.996582,-82.497616
137847,The University of Tampa,401 W Kennedy Blvd,Tampa,FL,33606-1490,Hillsborough County,27.948455,-82.46483
137953,Trinity Baptist College,800 Hammond Blvd,Jacksonville,FL,32221,Duval County,30.311171,-81.79626
138187,Valencia College,1768 Park Center Drive,Orlando,FL,32835,Orange County,28.520898,-81.471466
13830903,Rasmussen College-Tampa/Brandon,"4042 Park Oaks Blvd, Suite 100",Tampa,FL,336109558,Hillsborough County,27.982294,-82.334149
138813,The Art Institute of Atlanta,"6600 Peachtree Dunwoody Rd., N.E., 100 Embassy Row",Atlanta,GA,30328-1635,Fulton County,33.936024,-84.355252
138840,Atlanta Technical College,1560 Metropolitan Pkwy SW,Atlanta,GA,30310-4446,Fulton County,33.712009,-84.404995
138901,Atlanta Metropolitan State College,"1630 Metropolitan Parkway, SW",Atlanta,GA,30310-4448,Fulton County,33.70893,-84.404659
138929,Atlanta's John Marshall Law School,1422 West Peachtree Street NW,Atlanta,GA,30309,Fulton County,33.793394,-84.387898
138938,Atlanta School of Massage,2 Dunwoody Park South,Atlanta,GA,30338,DeKalb County,33.922131,-84.311332
138947,Clark Atlanta University,"223 James P Brawley Drive, SW",Atlanta,GA,30314-4391,Fulton County,33.747628,-84.412584
139153,Beulah Heights University,892 Berne St SE,Atlanta,GA,30316,Fulton County,33.736993,-84.35768
139214,Brown College of Court Reporting,"1100 Spring Street, Suite 101",Atlanta,GA,30309,Fulton County,33.784769,-84.389979
139357,Columbus Technical College,928 Manchester Expy,Columbus,GA,31904-6572,Muscogee County,32.508076,-84.978551
139366,Columbus State University,4225 University Ave,Columbus,GA,31907-5645,Muscogee County,32.50096,-84.94106
139658,Emory University,201 Dowman Drive,Atlanta,GA,30322,DeKalb County,33.790183,-84.325512
139746,Grady Health System Professional Schools,"80 Jesse Hill Jr Drive, SE",Atlanta,GA,30303-3050,Fulton County,33.751852,-84.381561
139755,Georgia Institute of Technology-Main Campus,225 North Ave,Atlanta,GA,30332-0530,Fulton County,33.77242,-84.394832
139940,Georgia State University,33 gilmer st,Atlanta,GA,30303-3083,Fulton County,33.7527,-84.38667
140146,Interdenominational Theological Center,700 Martin Luther King Jr Dr SW,Atlanta,GA,30314-4143,Fulton County,33.752338,-84.409207
140340,Herzing University-Atlanta,50 Hurt Plaza SE  Ste. 400,Atlanta,GA,30303,Fulton County,33.754218,-84.387251
140553,Morehouse College,830 Westview Dr SW,Atlanta,GA,30314,Fulton County,33.745982,-84.414917
140562,Morehouse School of Medicine,"720 Westview Drive, S.W.",Atlanta,GA,30310,Fulton County,33.742888,-84.41186
140696,Oglethorpe University,"4484 Peachtree Road, NE",Atlanta,GA,30319-2797,DeKalb County,33.875441,-84.333687
140827,Miami Ad School - Atlanta,125 Bennett St NW,Atlanta,GA,30309,Fulton County,33.812116,-84.396182
141015,The Creative Circus,812 Lambert Dr.,Atlanta,GA,30324,Fulton County,33.813156,-84.361989
141060,Spelman College,350 Spelman Lane SW,Atlanta,GA,30314-4399,Fulton County,33.745279,-84.411527
141237,Truett McConnell University,100 Alumni Dr,Cleveland,GA,30528,White County,34.596306,-83.748911
141486,Chaminade University of Honolulu,3140 Waialae Avenue,Honolulu,HI,96816-1578,Honolulu County,21.28995,-157.807851
141574,University of Hawaii at Manoa,2500 Campus Road,Honolulu,HI,96822-2217,Honolulu County,21.298598,-157.818979
141608,Hawaii Institute of Hair Design,1128 Nuuanu Avenue,Honolulu,HI,96817-5195,Honolulu County,21.31146,-157.861609
141644,Hawaii Pacific University,1 Aloha Tower Drive,Honolulu,HI,96813,Honolulu County,21.310306,-157.859645
141680,Honolulu Community College,874 Dillingham Blvd,Honolulu,HI,96817-4505,Honolulu County,21.321785,-157.87
141796,Kapiolani Community College,4303 Diamond Head Road,Honolulu,HI,96816-4421,Honolulu County,21.27148,-157.800213
141963,University of Hawaii System Office,2444 Dole St,Honolulu,HI,96822-2399,Honolulu County,21.297263,-157.819849
142832,Adler University,17 North Dearborn Street,Chicago,IL,60602,Cook County,41.882414,-87.629156
142887,American Academy of Art,332 S Michigan Ave,Chicago,IL,60604-4302,Cook County,41.87742,-87.624788
142957,American Islamic College,640 W Irving Park RD,Chicago,IL,60613,Cook County,41.954969,-87.646898
143048,School of the Art Institute of Chicago,36 S Wabash,Chicago,IL,60603,Cook County,41.88105,-87.625758
143118,Aurora University,347 S Gladstone Ave,Aurora,IL,60506-4892,Kane County,41.753631,-88.349023
143215,Southwestern Illinois College,2500 Carlyle Ave,Belleville,IL,62221-5899,St. Clair County,38.516406,-89.924466
143482,Cannella School of Hair Design-Chicago,9012 S Commercial,Chicago,IL,60617-4303,Cook County,41.731381,-87.551622
143491,Cannella School of Hair Design-Chicago,4269 S Archer Ave,Chicago,IL,60632-2549,Cook County,41.815763,-87.701198
143659,Catholic Theological Union at Chicago,5416 S Cornell Ave,Chicago,IL,60615-5698,Cook County,41.797895,-87.585989
143978,The Chicago School of Professional Psychology at Chicago,325 N Wells Street,Chicago,IL,60654,Cook County,41.888293,-87.63379
144005,Chicago State University,9501 S. King Drive,Chicago,IL,60628-1598,Cook County,41.718446,-87.609384
144014,Chicago Theological Seminary,1407 E. 60th Street,Chicago,IL,60637,Cook County,41.785701,-87.591178
144050,University of Chicago,5801 S Ellis Ave,Chicago,IL,60637,Cook County,41.787994,-87.599539
144157,City Colleges of Chicago-Kennedy-King College,6301 S Halsted St,Chicago,IL,60621-2709,Cook County,41.780253,-87.643425
144166,City Colleges of Chicago-Malcolm X College,1900 W Jackson Blvd,Chicago,IL,60612-3197,Cook County,41.878092,-87.675321
144175,City Colleges of Chicago-Olive-Harvey College,10001 S Woodlawn Ave,Chicago,IL,60628-1696,Cook County,41.709997,-87.589249
144184,City Colleges of Chicago-Harry S Truman College,1145 W Wilson Ave.,Chicago,IL,60640-6063,Cook County,41.964502,-87.659107
144193,City Colleges of Chicago-Richard J Daley College,7500 S Pulaski Rd,Chicago,IL,60652-1299,Cook County,41.755955,-87.723981
144209,City Colleges of Chicago-Harold Washington College,30 E Lake St,Chicago,IL,60601-2449,Cook County,41.886067,-87.626596
144218,City Colleges of Chicago-Wilbur Wright College,4300 N Narragansett,Chicago,IL,60634-1500,Cook County,41.958774,-87.787868
144281,Columbia College Chicago,600 South Michigan,Chicago,IL,60605-1996,Cook County,41.874261,-87.624667
144485,Coyne College,1 North State Street,Chicago,IL,60602-3304,Cook County,41.882558,-87.627413
144500,City Colleges of Chicago-District Office,180 N. Wabash,Chicago,IL,60601,Cook County,41.885431,-87.62666
144740,DePaul University,1 E Jackson Blvd,Chicago,IL,60604,Cook County,41.877618,-87.62724
144883,East-West University,816 S Michigan Ave,Chicago,IL,60605,Cook County,41.871309,-87.624793
144962,Elmhurst College,190 Prospect Ave,Elmhurst,IL,60126-3296,DuPage County,41.897164,-87.945369
145600,University of Illinois at Chicago,601 S Morgan,Chicago,IL,60607,Cook County,41.871837,-87.650503
145628,Illinois College of Optometry,3241 S Michigan Ave,Chicago,IL,60616-3878,Cook County,41.835447,-87.623016
145691,Illinois College,1101 West College Ave,Jacksonville,IL,62650-2299,Morgan County,39.7313,-90.246171
145725,Illinois Institute of Technology,10 West 35th Street,Chicago,IL,60616,Cook County,41.8313,-87.627321
145886,Institute for Clinical Social Work,"401 South State Street, Suite 822",Chicago,IL,60605-1229,Cook County,41.876064,-87.627217
146241,The John Marshall Law School,315 S Plymouth Ct,Chicago,IL,60604,Cook County,41.877966,-87.628567
146667,Lincoln Christian University,100 Campus View Drive,Lincoln,IL,62656-2111,Logan County,40.148924,-89.346721
146676,Lincoln College,300 Keokuk St,Lincoln,IL,62656,Logan County,40.155442,-89.36153
146719,Loyola University Chicago,1032 W. Sheridan Rd,Chicago,IL,60660,Cook County,42.000765,-87.656872
146728,Lutheran School of Theology at Chicago,1100 E 55th St,Chicago,IL,60615-5134,Cook County,41.79563,-87.598978
146807,Steven Papageorge Hair Academy,1113-15 W Belmont,Chicago,IL,60657,Cook County,41.939685,-87.657152
146816,MacCormac College,29 E. Madison,Chicago,IL,60602-4405,Cook County,41.881898,-87.626657
146825,MacMurray College,447 East College Ave,Jacksonville,IL,62650-2590,Morgan County,39.730918,-90.223986
146977,McCormick Theological Seminary,5460 S. University,Chicago,IL,60615,Cook County,41.79597,-87.598511
147031,Meadville Lombard Theological School,610 S. Michigan Avenue,Chicago,IL,60605,Cook County,41.874027,-87.624619
147369,Moody Bible Institute,820 N LaSalle Blvd,Chicago,IL,60610-3284,Cook County,41.897822,-87.633459
147536,National Louis University,122 S Michigan Ave,Chicago,IL,60603,Cook County,41.880093,-87.624699
147679,North Park University,3225 W Foster Ave,Chicago,IL,60625-4895,Cook County,41.975268,-87.709948
147776,Northeastern Illinois University,5500 N Saint Louis Ave,Chicago,IL,60625-4699,Cook County,41.980399,-87.718983
148335,Robert Morris University Illinois,401 S State Street,Chicago,IL,60605,Cook County,41.876278,-87.627068
148487,Roosevelt University,430 S Michigan Ave,Chicago,IL,60605-1394,Cook County,41.876055,-87.624952
148511,Rush University,600 S. Paulina St. STE 440,Chicago,IL,60612,Cook County,41.874742,-87.668581
148627,Saint Xavier University,3700 W 103rd St,Chicago,IL,60655,Cook County,41.707199,-87.714749
148876,Saint Augustine College,1345 W. Argyle St.,Chicago,IL,60640-3501,Cook County,41.972414,-87.662806
148955,National Latino Education Institute,2011 W Pershing Rd,Chicago,IL,60609-2205,Cook County,41.822756,-87.675917
148982,Spertus College,610 S Michigan Ave,Chicago,IL,60605,Cook County,41.873881,-87.624785
149310,Taylor Business Institute,"180 North Wabash Avenue, Fifth Floor",Chicago,IL,60601,Cook County,41.885452,-87.62671
149329,Telshe Yeshiva-Chicago,3535 West Foster,Chicago,IL,60625,Cook County,41.975536,-87.71755
14953201,Triton College - Intl Union of Operating Engr Local 399 Trning Fac.,2260 South Grove Street,Chicago,IL,606161823,Cook County,41.850888,-87.640926
149639,VanderCook College of Music,3140 South Federal Street,Chicago,IL,60616-3731,Cook County,41.836833,-87.629138
149763,Resurrection University,1431 N. Claremont,Chicago,IL,60622,Cook County,41.90748,-87.685291
150163,Butler University,4600 Sunset Ave,Indianapolis,IN,46208,Marion County,39.8374,-86.172167
150215,Christian Theological Seminary,1000 W 42nd St,Indianapolis,IN,46208-3301,Marion County,39.832673,-86.178551
150288,Concordia Theological Seminary,6600 N Clinton St,Fort Wayne,IN,46825-4996,Allen County,41.139321,-85.10994
150987,Ivy Tech Community College,50 W. Fall Creek Parkway N. Drive,Indianapolis,IN,46208-5752,Marion County,39.803753,-86.158213
15098702,Ivy Tech Community College-Columbus,4475 Central Ave,Columbus,IN,472031868,Bartholomew County,39.250212,-85.903022
15098706,Ivy Tech Community College-Northeast,3800 N Anthony Blvd,Fort Wayne,IN,468051489,Allen County,41.112356,-85.112005
15098712,Ivy Tech Community College-Southeast,590 Ivy Tech Dr,Madison,IN,472501881,Jefferson County,38.780425,-85.376301
15098714,Ivy Tech Community College-Central Indiana,50 W Fall Creek Parkway N Dr,Indianapolis,IN,462089272,Marion County,39.803834,-86.157998
151102,Purdue University Fort Wayne,2101 E Coliseum Blvd,Fort Wayne,IN,46805-1499,Allen County,41.117278,-85.108962
151111,Indiana University-Purdue University-Indianapolis,420 University Blvd,Indianapolis,IN,46202-5143,Marion County,39.772948,-86.172217
151263,University of Indianapolis,1400 E Hanna Ave,Indianapolis,IN,46227-3697,Marion County,39.709571,-86.133969
151290,Indiana Institute of Technology,1600 E Washington Blvd,Fort Wayne,IN,46803-1228,Allen County,41.078365,-85.116479
151379,Indiana University-Southeast,4201 Grant Line Rd,New Albany,IN,47150,Floyd County,38.345191,-85.819985
151458,International Business College-Fort Wayne,5699 Coventry Lane,Fort Wayne,IN,46804-7145,Allen County,41.035006,-85.257786
151467,International Business College-Indianapolis,7205 Shadeland Station,Indianapolis,IN,46256-3954,Marion County,39.885628,-86.041648
151652,Empire Beauty School-Indianapolis,3810 E Southport Rd.,Indianapolis,IN,46237-3249,Marion County,39.666467,-86.100614
151661,Lincoln College of Technology-Indianapolis,7225 Winton Drive - Building 128,Indianapolis,IN,46268,Marion County,39.884503,-86.246276
151786,Marian University,3200 Cold Spring Rd,Indianapolis,IN,46222-1997,Marion County,39.813233,-86.202643
151810,Martin University,2186 North Sherman Drive,Indianapolis,IN,46218-0567,Marion County,39.798144,-86.103953
15208001,University of Notre Dame -,224 South Michigan Avenue,Chicago,IL,606042535,Cook County,41.878594,-87.624871
152275,Ravenscroft Beauty College,4530 Lahmeyer Road,Fort Wayne,IN,46835,Allen County,41.121802,-85.046078
152336,University of Saint Francis-Fort Wayne,2701 Spring St,Fort Wayne,IN,46808-3994,Allen County,41.087205,-85.177246
154022,Ashford University,8620 Spectrum Center Boulevard,San Diego,CA,92123,San Diego County,32.8273,-117.141961
15492502,Columbus Technical Campus,509 W Elm,Columbus,KS,667255064,Cherokee County,37.169173,-94.84811
155007,Donnelly College,608 N 18th St,Kansas City,KS,66102,Wyandotte County,39.112256,-94.650677
155089,Friends University,2100 W. University Ave.,Wichita,KS,67213,Sedgwick County,37.678459,-97.367048
155283,Concorde Career College-Kansas City,3239 Broadway,Kansas City,MO,64111-2407,Jackson County,39.06799,-94.589819
155292,Kansas City Kansas Community College,7250 State Ave,Kansas City,KS,66112,Wyandotte County,39.121911,-94.748061
155335,Newman University,3100 McCormick Ave,Wichita,KS,67213-2097,Sedgwick County,37.672643,-97.37768
155353,Old Town Barber College-Wichita,1211 E Douglas,Wichita,KS,67211-1605,Sedgwick County,37.68586,-97.323179
15535301,Old Town Barber College - KC,14133 East US Highway 40,Kansas City,MO,641361187,Jackson County,39.034001,-94.413558
155399,Kansas State University,"919 Mid-Campus Drive, Anderson Hall",Manhattan,KS,66506,Riley County,39.188648,-96.581077
155487,Manhattan Area Technical College,3136 Dickens Ave,Manhattan,KS,66503-2499,Riley County,39.197774,-96.615672
155496,Manhattan Christian College,1415 Anderson Ave,Manhattan,KS,66502-4801,Riley County,39.184806,-96.579383
156107,Wichita State University-Campus of Applied Sciences and Technology,4004 N Webb Rd. Bldg 100,Wichita,KS,67226,Sedgwick County,37.75764,-97.224151
156125,Wichita State University,1845 N. Fairmount,Wichita,KS,67260-0124,Sedgwick County,37.718882,-97.292361
156134,Wichita Technical Institute,2051 South Meridian,Wichita,KS,67213-1927,Sedgwick County,37.656976,-97.371819
156286,Bellarmine University,2001 Newburg Rd,Louisville,KY,40205-0671,Jefferson County,38.219279,-85.704997
15631003,PJ's College of Cosmetology- Indianapolis,4010 South Emerson Avenue,Indianapolis,IN,462033120,Marion County,39.708721,-86.083249
15631005,PJ's College of Cosmetology- Louisville,2911 S. Hurstbourne Parkway,Louisville,KY,402333120,Jefferson County,38.208435,-85.599402
156392,Bluegrass Community and Technical College,470 Cooper Drive,Lexington,KY,40506,Fayette County,38.024808,-84.503665
156426,Paul Mitchell the School-Lexington,3644 Boston Road,Lexington,KY,40514,Fayette County,37.980361,-84.548281
156471,Galen College of Nursing-Louisville,"1031 Zorn Avenue , Suite 400",Louisville,KY,40207,Jefferson County,38.277005,-85.695972
156842,Paul Mitchell the School-Louisville,156 North Hurstbourne Parkway,Louisville,KY,40222,Jefferson County,38.24897,-85.578849
156851,Henderson Community College,2660 S Green St,Henderson,KY,42420-4699,Henderson County,37.797687,-87.650091
156921,Jefferson Community and Technical College,101 W Broadway,Louisville,KY,40202-2005,Jefferson County,38.246027,-85.753615
156967,Summit Salon Academy-Lexington,1300 New Circle Rd Ste 110,Lexington,KY,40505,Fayette County,38.028451,-84.453521
157021,American National University-Lexington,2376 Sir Barton Way,Lexington,KY,40509,Fayette County,38.026996,-84.421099
157085,University of Kentucky,South Limestone,Lexington,KY,40506-0032,Fayette County,38.038911,-84.504747
157207,Lexington Theological Seminary,"230 Lexington Green Circle, Suite 300",Lexington,KY,40503,Fayette County,37.996332,-84.526079
157289,University of Louisville,2301 S 3rd St,Louisville,KY,40292-0001,Jefferson County,38.216862,-85.760412
157298,Louisville Presbyterian Theological Seminary,1044 Alta Vista Rd,Louisville,KY,40205-1798,Jefferson County,38.237056,-85.686411
157614,Empire Beauty School-Chenoweth,151 Chenoweth Ln,Louisville,KY,40207,Jefferson County,38.255764,-85.65752
157669,Empire Beauty School-Dixie,5120 Dixie Highway,Louisville,KY,40216,Jefferson County,38.167059,-85.830866
157748,The Southern Baptist Theological Seminary,2825 Lexington Rd,Louisville,KY,40280-0001,Jefferson County,38.248216,-85.687649
157757,Spalding University,901 S Fourth Street,Louisville,KY,40203-2188,Jefferson County,38.242407,-85.757725
157793,Sullivan University,3101 Bardstown Rd,Louisville,KY,40205-3013,Jefferson County,38.212824,-85.670489
157818,Transylvania University,300 N Broadway,Lexington,KY,40508-1797,Fayette County,38.052983,-84.493202
157827,Trend Setters' Academy of Beauty Culture-Louisville,7283 Dixie Hwy,Louisville,KY,40258,Jefferson County,38.144782,-85.838494
158617,Crescent City Bartending School,209 N. Broad,New Orleans,LA,70119,Orleans Parish,29.966842,-90.086679
158662,Delgado Community College,615 City Park Avenue,New Orleans,LA,70119,Orleans Parish,29.985149,-90.103962
158802,Dillard University,2601 Gentilly Blvd,New Orleans,LA,70122,Orleans Parish,29.996587,-90.06464
159373,Louisiana State University Health Sciences Center-New Orleans,433 Bolivar St,New Orleans,LA,70112-2223,Orleans Parish,29.957272,-90.083145
159656,Loyola University New Orleans,6363 Saint Charles Ave,New Orleans,LA,70118-6143,Orleans Parish,29.936141,-90.120417
159939,University of New Orleans,2000 Lakeshore Drive,New Orleans,LA,70148,Orleans Parish,30.027704,-90.067142
159948,New Orleans Baptist Theological Seminary,3939 Gentilly Blvd,New Orleans,LA,70126,Orleans Parish,30.004336,-90.043439
160065,University of Holy Cross,4123 Woodland Drive,New Orleans,LA,70131-7399,Orleans Parish,29.912003,-89.99445
160597,Stevensons Academy of Hair Design,401 Opelousas Avenue,New Orleans,LA,70114,Orleans Parish,29.948438,-90.052219
160630,Southern University at New Orleans,6400 Press Drive,New Orleans,LA,70126,Orleans Parish,30.026162,-90.044912
160755,Tulane University of Louisiana,6823 St. Charles Avenue,New Orleans,LA,70118-5698,Orleans Parish,29.940069,-90.122144
160904,Xavier University of Louisiana,1 Drexel Drive,New Orleans,LA,70125-1098,Orleans Parish,29.964162,-90.107307
161493,Empire Beauty School-Maine,319 Marginal Way,Portland,ME,04101,Cumberland County,43.667885,-70.258154
161509,Maine College of Art,522 Congress St.,Portland,ME,04101-3494,Cumberland County,43.655743,-70.261015
161554,University of Southern Maine,96 Falmouth St,Portland,ME,04103,Cumberland County,43.662863,-70.274247
161855,Baltimore Studio of Hair Design,318 N Howard St,Baltimore,MD,21201-3444,Baltimore city,39.293371,-76.620008
161864,Baltimore City Community College,2901 Liberty Heights Avenue,Baltimore,MD,21215-7893,Baltimore city,39.319978,-76.662878
161873,University of Baltimore,Charles at Mount Royal,Baltimore,MD,21201-5720,Baltimore city,39.305834,-76.616591
162283,Coppin State University,2500 West North Avenue,Baltimore,MD,21216-3698,Baltimore city,39.311258,-76.658687
162371,North American Trade Schools,"6901 Security Blvd, Suite 16",Baltimore,MD,21244,Baltimore County,39.309556,-76.749455
162654,Goucher College,1021 Dulaney Valley Rd,Baltimore,MD,21204-2794,Baltimore County,39.410175,-76.594843
162928,Johns Hopkins University,3400 N Charles St,Baltimore,MD,21218-2688,Baltimore city,39.328977,-76.621595
163046,Loyola University Maryland,4501 N Charles St,Baltimore,MD,21210-2699,Baltimore city,39.346358,-76.621872
163259,"University of Maryland, Baltimore",620 West Lexington St,Baltimore,MD,21201-1627,Baltimore city,39.286864,-76.623983
163268,University of Maryland-Baltimore County,1000 Hilltop Circle,Baltimore,MD,21250,Baltimore County,39.256686,-76.711607
163295,Maryland Institute College of Art,1300 Mount Royal Avenue,Baltimore,MD,21217-4134,Baltimore city,39.308792,-76.621033
163453,Morgan State University,1700 East Cold Spring Lane,Baltimore,MD,21251-0001,Baltimore city,39.344161,-76.585565
163532,Ner Israel Rabbinical College,400 Mount Wilson Ln,Baltimore,MD,21208,Baltimore County,39.388021,-76.753526
163578,Notre Dame of Maryland University,4701 N Charles St,Baltimore,MD,21210-2476,Baltimore city,39.350612,-76.619739
163815,Maryland Beauty Academy of Essex,"7930 Eastern Ave, Suite 5",Baltimore,MD,21224,Baltimore County,39.29844,-76.509213
164146,University System of Maryland,701 E. Pratt St.,Baltimore,MD,21201,Baltimore city,39.286077,-76.605479
164438,New England College of Business and Finance,10 High St Ste 204,Boston,MA,02110,Suffolk County,42.353619,-71.056671
164474,Andover Newton Theological School,1912 Massachusetts Avenue,Lexington,MA,02421,New Haven County,41.323386,-72.92138
164614,Boston Baptist College,950 Metropolitan Ave,Boston,MA,02136-4030,Suffolk County,42.254037,-71.1103
164641,Bay State College,31 St. James Avenue,Boston,MA,02116,Suffolk County,42.350966,-71.071615
164748,Berklee College of Music,1140 Boylston St,Boston,MA,02215,Suffolk County,42.346646,-71.089405
164845,Empire Beauty School-Boston,30 West Street,Boston,MA,02111,Suffolk County,42.354683,-71.062722
164872,Boston Architectural College,320 Newbury Street,Boston,MA,02115-2703,Suffolk County,42.348467,-71.085786
164988,Boston University,One Silber Way,Boston,MA,02215,Suffolk County,42.351118,-71.107942
165112,Bunker Hill Community College,250 New Rutherford Ave,Boston,MA,02129-2925,Suffolk County,42.374806,-71.069263
165167,Cambridge College,500 Rutherford Avenue,Boston,MA,02129,Suffolk County,42.381091,-71.072646
165662,Emerson College,120 Boylston Street,Boston,MA,02116-4624,Suffolk County,42.352202,-71.065384
165671,Emmanuel College,400 The Fenway,Boston,MA,02115,Suffolk County,42.340602,-71.103634
165802,Fisher College,118 Beacon Street,Boston,MA,02116,Suffolk County,42.355253,-71.074125
165884,Benjamin Franklin Institute of Technology,41 Berkeley St,Boston,MA,02116,Suffolk County,42.346023,-71.070231
166638,University of Massachusetts-Boston,100 Morrissey Boulevard,Boston,MA,02125-3393,Suffolk County,42.312881,-71.036865
166656,MCPHS University,179 Longwood Ave,Boston,MA,02115-5896,Suffolk County,42.336825,-71.101244
166665,University of Massachusetts-Central Office,1 Beacon Street,Boston,MA,02108,Suffolk County,42.35849,-71.060761
166674,Massachusetts College of Art and Design,621 Huntington Ave,Boston,MA,02115-5882,Suffolk County,42.336862,-71.099275
166869,MGH Institute of Health Professions,36 1st Avenue,Boston,MA,02129-4557,Suffolk County,42.375018,-71.054002
167057,The New England Conservatory of Music,290 Huntington Ave,Boston,MA,02115-5018,Suffolk County,42.340946,-71.08629
167093,New England College of Optometry,424 Beacon St,Boston,MA,02115,Suffolk County,42.351853,-71.086829
167215,New England Law-Boston,154 Stuart St,Boston,MA,02116,Suffolk County,42.350833,-71.0665
167297,North Bennet Street School,150 North Street,Boston,MA,02109,Suffolk County,42.36279,-71.05452
167358,Northeastern University,360 Huntington Ave,Boston,MA,02115-5005,Suffolk County,42.339992,-71.088782
167783,Simmons University,300 The Fenway,Boston,MA,02115-5898,Suffolk County,42.3393,-71.099967
168005,Suffolk University,73 Tremont St.,Boston,MA,02108-3901,Suffolk County,42.357945,-71.060917
168227,Wentworth Institute of Technology,550 Huntington Ave,Boston,MA,02115,Suffolk County,42.336632,-71.094983
169442,College for Creative Studies,201 E Kirby,Detroit,MI,48202,Wayne County,42.361839,-83.062352
16947922,Davenport University - Wayne CCCD,Mary Ellen Stemple Univ. Campus,Belleville,MI,481111404,Wayne County,42.232672,-83.438831
16947925,Davenport University - Detroit,3031 West Grand Boulevard Suite 136,Detroit,MI,482023046,Wayne County,42.370215,-83.076227
169716,University of Detroit Mercy,4001 W McNichols Rd,Detroit,MI,48221-3038,Wayne County,42.414222,-83.139158
169761,Dorsey School of Business-Woodhaven,19810 West Road,Woodhaven,MI,48183,Wayne County,42.142547,-83.224784
170842,Marygrove College,8425 W. McNichols Rd.,Detroit,MI,48221-2599,Wayne County,42.414415,-83.154109
171012,Michigan Barber School Inc,8988-90 Grand River Avenue,Detroit,MI,48204-2244,Wayne County,42.365023,-83.128883
172033,Sacred Heart Major Seminary,2701 Chicago Blvd,Detroit,MI,48206-1799,Wayne County,42.375248,-83.111682
172635,Wayne County Community College District,801 W. Fort Street,Detroit,MI,48226,Wayne County,42.327299,-83.054497
172644,Wayne State University,656 West Kirby Street,Detroit,MI,48202,Wayne County,42.358994,-83.068998
172927,American Indian OIC Inc,1845 E. Franklin Ave,Minneapolis,MN,55404-2221,Hennepin County,44.961993,-93.246155
173045,Augsburg University,2211 Riverside Ave,Minneapolis,MN,55454,Hennepin County,44.966307,-93.240436
173063,Riverland Community College,1900 8th Ave NW,Austin,MN,55912-1473,Mower County,43.676271,-92.995626
173160,Bethel University,3900 Bethel Dr,Saint Paul,MN,55112,Ramsey County,45.057655,-93.161663
173179,Bethel Seminary-St Paul,3949 Bethel Dr,Saint Paul,MN,55112,Ramsey County,45.060071,-93.16318
173328,Concordia University-Saint Paul,1282 Concordia Ave,Saint Paul,MN,55104-5494,Ramsey County,44.949759,-93.154861
173665,Hamline University,1536 Hewitt Avenue,Saint Paul,MN,55104-1284,Ramsey County,44.966246,-93.164479
173744,Aveda Institute-Minneapolis,400 Central Ave SE,Minneapolis,MN,55414,Hennepin County,44.987863,-93.253713
173896,Luther Seminary,2481 Como Ave,Saint Paul,MN,55108-1496,Ramsey County,44.984629,-93.196422
173902,Macalester College,1600 Grand Ave,Saint Paul,MN,55105-1899,Ramsey County,44.938565,-93.168053
17395701,Mayo Clinic College of Medicine and Science - Florida,4500 San Pablo Road,Jacksonville,FL,32224,Duval County,30.264237,-81.440906
17395702,Mayo Clinic College of Medicine and Science - Arizona,13400 East Shea Boulevard,Scottsdale,AZ,85259,Maricopa County,33.586153,-111.79408
174020,Metropolitan State University,700 East Seventh Street,Saint Paul,MN,55106-5000,Ramsey County,44.957256,-93.074361
174066,University of Minnesota-Twin Cities,100 Church Street SE,Minneapolis,MN,55455-0213,Hennepin County,44.972851,-93.235464
174127,Minneapolis College of Art and Design,2501 Stevens Ave,Minneapolis,MN,55404,Hennepin County,44.956988,-93.274705
174136,Minneapolis Community and Technical College,1501 Hennepin Ave,Minneapolis,MN,55403-1779,Hennepin County,44.972679,-93.284507
174437,North Central University,910 Elliot Ave,Minneapolis,MN,55404-1391,Hennepin County,44.968625,-93.261511
174491,University of Northwestern-St Paul,3003 Snelling Ave N,Saint Paul,MN,55113-1598,Ramsey County,45.033703,-93.167822
174914,University of St Thomas,2115 Summit Ave,Saint Paul,MN,55105-1078,Ramsey County,44.943439,-93.188986
175005,St Catherine University,2004 Randolph Ave,Saint Paul,MN,55105,Ramsey County,44.924926,-93.183761
175041,Saint Paul College,235 Marshall Ave,Saint Paul,MN,55102-9808,Ramsey County,44.949186,-93.109646
175120,Summit Academy Opportunities Industrialization Center,935 Olson Memorial Hwy,Minneapolis,MN,55405,Hennepin County,44.983569,-93.292776
175227,Dunwoody College of Technology,818 Dunwoody Blvd,Minneapolis,MN,55403-1192,Hennepin County,44.97281,-93.290608
175281,Mitchell Hamline School of Law,875 Summit Ave,Saint Paul,MN,55105-3076,Ramsey County,44.94202,-93.138224
175616,Delta State University,1003 W Sunflower Road,Cleveland,MS,38733,Bolivar County,33.744745,-90.735365
176035,Mississippi University for Women,1100 College Street,Columbus,MS,39701,Lowndes County,33.493305,-88.418601
176600,Aquinas Institute of Theology,23 S. Spring Ave.,Saint Louis,MO,63108-3323,St. Louis city,38.634329,-90.237795
176628,Avila University,11901 Wornall Rd,Kansas City,MO,64145-1698,Jackson County,38.91339,-94.591758
176789,Calvary University,15800 Calvary Road,Kansas City,MO,64147-1341,Cass County,38.839578,-94.547927
17706504,Columbia College - NAS Jacksonville,"110 Yorktown Ave, P.O. Box 441325",Jacksonville,FL,322120137,Duval County,30.226086,-81.676741
17706505,Columbia College - Orlando,"2600 Technology Drive, Suite 100",Orlando,FL,328042606,Orange County,28.555219,-81.412655
17706507,Columbia College - Kansas City,"4240 Blue Ridge Blvd., Ste. 400",Kansas City,MO,641331707,Jackson County,39.044251,-94.439315
17706511,Columbia College - Saint Louis,4411 Woodson Road,Saint Louis,MO,631343701,St. Louis County,38.73103,-90.358271
17706512,Columbia College - Fort Worth,1564 Headquarters Avenue,Fort Worth,TX,761271188,Tarrant County,32.774401,-97.424414
17706529,Columbia College -  Jacksonville,"7077 Bonneval Road, Suite 114",Jacksonville,FL,322166010,Duval County,30.247067,-81.597193
17706532,Columbia College - San Diego,4025 Tripoli Avenue Building 111,San Diego,CA,921405290,San Diego County,32.74263,-117.192534
17706533,Columbia College - Mesquite,802 South Buckner Blvd,Dallas,TX,75217,Dallas County,32.725955,-96.682166
17706535,Columbia College - Naval Base San Diego,"3975 Norman Scott Road Building 3280, Room B103",San Diego,CA,921365588,San Diego County,32.684371,-117.115074
177092,Concordia Seminary,801 Seminary Place,Saint Louis,MO,63105-3196,St. Louis County,38.637181,-90.311324
177126,Covenant Theological Seminary,12330 Conway Road,Saint Louis,MO,63141-8609,St. Louis County,38.643066,-90.451323
177287,Elaine Steven Beauty College,10420 W Florissant Ave,Saint Louis,MO,63136-5618,St. Louis County,38.761399,-90.278574
177302,Pinnacle Career Institute-South Kansas City,10301 Hickman Mills Dr.,Kansas City,MO,64137-1659,Jackson County,38.938335,-94.529762
177418,Fontbonne University,6800 Wydown Blvd,Saint Louis,MO,63105-3098,St. Louis County,38.642697,-90.315712
177551,Harris-Stowe State University,3026 Laclede Ave,Saint Louis,MO,63103-2136,St. Louis city,38.631744,-90.224288
177588,House of Heavilin Beauty College-Kansas City,5720 Troost,Kansas City,MO,64110-2826,Jackson County,39.022905,-94.574262
177719,Barnes-Jewish College Goldfarb School of Nursing,"4483 Duncan Avenue, Mailstop 90-36-697",Saint Louis,MO,63110,St. Louis city,38.637165,-90.258772
177746,Kansas City Art Institute,4415 Warwick Blvd,Kansas City,MO,64111-1874,Jackson County,39.046353,-94.583594
177816,Kenrick Glennon Seminary,5200 Glennon Dr,Saint Louis,MO,63119-4399,St. Louis County,38.584608,-90.324024
177931,Lex La-Ray Technical Center,2323 High School Dr,Lexington,MO,64067-1525,Lafayette County,39.173683,-93.865563
17796801,Lindenwood University-Belleville,2600 W Main St,Belleville,IL,62226,St. Clair County,38.52306,-90.011011
177995,Metropolitan Community College-Kansas City,3200 Broadway,Kansas City,MO,64111-2429,Jackson County,39.068668,-94.58966
178004,Lutheran School of Nursing,3547 S Jefferson Ave,Saint Louis,MO,63118-3909,St. Louis city,38.590249,-90.226539
178059,Maryville University of Saint Louis,650 Maryville University Drive,Saint Louis,MO,63141-7299,St. Louis County,38.644774,-90.505998
178208,Midwestern Baptist Theological Seminary,5001 N. Oak Trafficway,Kansas City,MO,64118-4697,Clay County,39.185691,-94.573185
178244,Missouri Baptist University,One College Park Dr,Saint Louis,MO,63141-8698,St. Louis County,38.641526,-90.462586
178402,University of Missouri-Kansas City,5100 Rockhill Rd.,Kansas City,MO,64110,Jackson County,39.034179,-94.582141
178420,University of Missouri-St Louis,One University Boulevard,Saint Louis,MO,63121-4400,St. Louis County,38.710312,-90.311091
178518,Nazarene Theological Seminary,1700 E Meyer Blvd,Kansas City,MO,64131-1246,Jackson County,39.009265,-94.565781
178721,Park University,8700 NW River Park Dr,Parkville,MO,64152-3795,Platte County,39.189256,-94.679041
178767,Stevens-The Institute of Business & Arts,1521 Washington Avenue,Saint Louis,MO,63103,St. Louis city,38.632917,-90.201157
178891,Ranken Technical College,4431 Finney Ave,Saint Louis,MO,63113-2811,St. Louis city,38.653303,-90.248465
178989,Research College of Nursing,2525 E. Meyer Boulevard,Kansas City,MO,64132-1199,Jackson County,39.006611,-94.556762
179043,Rockhurst University,1100 Rockhurst Rd,Kansas City,MO,64110-2561,Jackson County,39.032318,-94.573003
179159,Saint Louis University,One North Grand Blvd,Saint Louis,MO,63103-2097,St. Louis city,38.636801,-90.2351
179265,St. Louis College of Pharmacy,4588 Parkview Place,Saint Louis,MO,63110-1088,St. Louis city,38.636904,-90.260617
179450,Saint Luke's College of Health Sciences,624 Westport Road,Kansas City,MO,64111,Jackson County,39.051884,-94.594656
179511,St Louis College of Health Careers-St Louis,909 South Taylor Avenue,Saint Louis,MO,63110,St. Louis city,38.63155,-90.26194
179812,Kansas City University of Medicine and Biosciences,1750 Independence Ave,Kansas City,MO,64106-1453,Jackson County,39.107553,-94.561374
179867,Washington University in St Louis,One Brookings Drive,Saint Louis,MO,63130-4899,St. Louis County,38.647929,-90.310604
179894,Webster University,470 E Lockwood Ave.,Saint Louis,MO,63119-3194,St. Louis County,38.588875,-90.345151
180832,Clarkson College,101 S 42nd St,Omaha,NE,68131-2739,Douglas County,41.259165,-95.974847
180878,Bryan College of Health Sciences,1535 S 52nd St,Lincoln,NE,68506,Lancaster County,40.796768,-96.651532
180957,College of Hair Design-Downtown,304 S Eleventh St,Lincoln,NE,68508-2199,Lancaster County,40.811084,-96.705169
181002,Creighton University,2500 California Plaza,Omaha,NE,68178,Douglas County,41.265361,-95.947811
181145,CHI Health School of Radiologic Technology,6901 North 72nd St,Omaha,NE,68122,Douglas County,41.32206,-96.020431
181190,Joseph's College Cosmetology,6810 P Street #200,Lincoln,NE,68505,Lancaster County,40.815284,-96.626464
181242,Purdue University Global-Lincoln,1821 K Street,Lincoln,NE,68508,Lancaster County,40.808915,-96.694181
181297,Nebraska Methodist College of Nursing & Allied Health,720 North 87th Street,Omaha,NE,68114-2852,Douglas County,41.265973,-96.048511
181303,Metropolitan Community College Area,30 & Fort Street,Omaha,NE,68111-1610,Douglas County,41.310451,-95.957829
181394,University of Nebraska at Omaha,6001 Dodge St,Omaha,NE,68182-0225,Douglas County,41.258769,-96.008516
181400,Purdue University Global-Omaha,5425 North 103rd Street,Omaha,NE,68134-1002,Douglas County,41.309515,-96.072772
181428,University of Nebraska Medical Center,42nd & Dewey Ave,Omaha,NE,68198-7815,Douglas County,41.256312,-95.973966
181446,Nebraska Wesleyan University,5000 St Paul Ave,Lincoln,NE,68504-2794,Lancaster County,40.839098,-96.64831
181464,University of Nebraska-Lincoln,14th and R St,Lincoln,NE,68588,Lancaster County,40.817598,-96.700508
181604,College of Saint Mary,7000 Mercy Rd.,Omaha,NE,68106,Douglas County,41.240028,-96.021425
181640,Southeast Community College Area,301 South 68th Street Place,Lincoln,NE,68510-2449,Lancaster County,40.81079,-96.62818
181738,Union College,3800 S 48th Street,Lincoln,NE,68506,Lancaster County,40.774778,-96.651095
181747,University of Nebraska-Central Administration System Office,3835 Holdrege St,Lincoln,NE,68583-0743,Lancaster County,40.827494,-96.665203
181880,Academy of Hair Design-Las Vegas,"5191 W. Charleston, #150",Las Vegas,NV,89146,Clark County,36.15846,-115.210473
182005,College of Southern Nevada,6375 W. Charleston Blvd.,Las Vegas,NV,89146-1164,Clark County,36.158114,-115.233099
182111,The Art Institute of Las Vegas,2350 Corporate Circle,Henderson,NV,89074-7737,Clark County,36.024552,-115.090268
182148,Las Vegas College,170 North Stephaine Suite 145,Henderson,NV,89074-8811,Clark County,36.037556,-115.04619
182281,University of Nevada-Las Vegas,4505 S Maryland Pky,Las Vegas,NV,89154,Clark County,36.106047,-115.138462
183044,University of New Hampshire-Main Campus,"105 Main St., Thompson Hall",Durham,NH,03824-3547,Strafford County,43.135934,-70.932465
184348,Drew University,36 Madison Ave,Madison,NJ,07940,Morris County,40.761829,-74.424584
184481,Essex County College,303 University Ave,Newark,NJ,07102,Essex County,40.738444,-74.178234
184694,Fairleigh Dickinson University-Florham Campus,285 Madison Ave,Madison,NJ,07940,Morris County,40.774498,-74.432121
185828,New Jersey Institute of Technology,University Heights,Newark,NJ,07102,Essex County,40.741997,-74.177113
186399,Rutgers University-Newark,"249 University Avenue, Blumenthal Hall",Newark,NJ,07102,Essex County,40.739122,-74.175809
186876,Stockton University,101 Vera King Farris Drive,Galloway,NJ,08205-9441,Atlantic County,39.492036,-74.531087
187532,Central New Mexico Community College,525 Buena Vista Dr SE,Albuquerque,NM,87106,Bernalillo County,35.071878,-106.628861
187897,New Mexico Highlands University,803 University Ave,Las Vegas,NM,87701,San Miguel County,35.596233,-105.219197
187985,University of New Mexico-Main Campus,1700 Lomas Blvd NE,Albuquerque,NM,87106,Bernalillo County,35.083868,-106.620155
188216,Southwestern Indian Polytechnic Institute,9169 Coors Blvd NW,Albuquerque,NM,87120-3101,Bernalillo County,35.176084,-106.664475
188340,Vaughn College of Aeronautics and Technology,86-01 23rd Avenue,Flushing,NY,11369,Queens County,40.768348,-73.881721
188650,Allen School-Brooklyn,188 Montague Street,Brooklyn,NY,11201,Kings County,40.693797,-73.991546
188669,The Ailey School,405 W 55th Street,New York,NY,10019-4402,New York County,40.766921,-73.986891
188678,American Academy of Dramatic Arts-New York,120 Madison Ave,New York,NY,10016,New York County,40.745545,-73.984843
188687,American Academy McAllister Institute of Funeral Service,619 West 54th Street - 2nd Floor,New York,NY,10019,New York County,40.769031,-73.993782
188696,Joffrey Ballet School,434 Ave of the Americas,New York,NY,10011,New York County,40.734545,-73.998566
188854,American Musical and Dramatic Academy,211 West 61st Street,New York,NY,10023,New York County,40.772275,-73.987549
188890,Apex Technical School,24-02 Queens Plaza South,Long Island City,NY,11101,Queens County,40.75043,-73.941511
188942,Associated Beth Rivkah Schools,310 Crown Street,Brooklyn,NY,11225-0000,Kings County,40.666069,-73.949781
189015,Bank Street College of Education,610 W 112 St,New York,NY,10025,New York County,40.805604,-73.966643
18908808,Bard College - BHSEC Newark,321 Bergen Street,Newark,NJ,071032639,Essex County,40.734728,-74.195116
18908809,Bard College - Brooklyn Public Library,10 Grand Army Plaza,Brooklyn,NY,112385619,Kings County,40.672444,-73.968255
18908810,Bard College - MAT Program CA,Immanuel Presbyterian Church 3300 Wilshire Boulevard,Los Angeles,CA,900101757,Los Angeles County,34.061437,-118.294489
189097,Barnard College,3009 Broadway,New York,NY,10027-6598,New York County,40.810098,-73.963346
189219,Berk Trade and Business School,33-09 Queens Boulevard,Long Island City,NY,11101-8120,Queens County,40.745021,-73.930982
189228,Berkeley College-New York,3 East 43 Street,New York,NY,10017,New York County,40.753986,-73.979458
189255,Berkowits School of Electrolysis,107-25 Metropolitan Avenue,Forest Hills,NY,11375-6820,Queens County,40.709736,-73.845213
189264,Beth Hatalmud Rabbinical College,2127 82nd St,Brooklyn,NY,11214-2594,Kings County,40.605256,-73.992684
189273,Beth Hamedrash Shaarei Yosher Institute,4102 16th Ave,Brooklyn,NY,11204,Kings County,40.635444,-73.981202
189282,Phillips School of Nursing at Mount Sinai Beth Israel,766 Avenue of the Americas 4th Floor,New York,NY,10001-6354,New York County,40.744973,-73.990936
189404,Brittany Beauty Academy,375 86th Street,Brooklyn,NY,11209,Kings County,40.62318,-74.028581
189413,Boricua College,3755 Broadway,New York,NY,10032-1560,New York County,40.833434,-73.9458
189477,American Beauty School,1380 Metropolitan Avenue,Bronx,NY,10462,Bronx County,40.835331,-73.860639
189501,Brooklyn Law School,250 Joralemon St,Brooklyn,NY,11201,Kings County,40.691836,-73.989623
189811,St Paul's School of Nursing-Queens,97-77 Queens Blvd,Rego Park,NY,11374,Queens County,40.72921,-73.858441
189857,Central Yeshiva Tomchei Tmimim Lubavitz,841 Ocean Pky,Brooklyn,NY,11230-2798,Kings County,40.669694,-73.938778
189990,"Christine Valmy International School for Esthetics, Skin Care & Makeup",1501 Broadway Suite 700,New York,NY,10036,New York County,40.757105,-73.986466
190008,Circle in the Square Theatre School,1633 Broadway,New York,NY,10019-6795,New York County,40.762059,-73.984607
190035,CUNY System Office,205 East 42nd Street,New York,NY,10017,New York County,40.750845,-73.973639
190114,Metropolitan College of New York,60 West Street,New York,NY,10006-1742,New York County,40.708706,-74.014702
190150,Columbia University in the City of New York,West 116 St and Broadway,New York,NY,10027,New York County,40.808286,-73.961885
190239,Empire Beauty School-Queens,38-15 Broadway,Astoria,NY,11103,Queens County,40.759259,-73.919033
190372,Cooper Union for the Advancement of Science and Art,7 East 7th Street,New York,NY,10003-7120,New York County,40.728148,-73.991609
190424,Weill Cornell Medical College,"1300 York Ave, C-114",New York,NY,10065,New York County,40.764738,-73.954839
19050302,"Culinary Institute of America, San Antonio",312 Pearl Pkwy Bldg 3,San Antonio,TX,78215,Bexar County,29.443159,-98.480268
190512,CUNY Bernard M Baruch College,One Bernard Baruch Way (55 Lexington Ave at 24th St),New York,NY,10010,New York County,40.740238,-73.983417
190521,CUNY Borough of Manhattan Community College,199 Chambers St,New York,NY,10007,New York County,40.71879,-74.011826
190530,CUNY Bronx Community College,2155 University Avenue,Bronx,NY,10453,Bronx County,40.858112,-73.912043
190549,CUNY Brooklyn College,2900 Bedford Ave,Brooklyn,NY,11210,Kings County,40.631517,-73.949898
19054901,CUNY Brooklyn College - Feirstein Graduate School of Cinema,25 Washington Avenue,Brooklyn,NY,112051202,Kings County,40.698507,-73.967388
190558,College of Staten Island CUNY,2800 Victory Blvd,Staten Island,NY,10314,Richmond County,40.601831,-74.14849
190567,CUNY City College,160 Convent Ave,New York,NY,10031,New York County,40.819846,-73.948542
190576,CUNY Graduate School and University Center,365 Fifth Ave,New York,NY,10016,New York County,40.748612,-73.983822
190585,CUNY Hostos Community College,500 Grand Concourse,Bronx,NY,10451,Bronx County,40.81812,-73.926759
190594,CUNY Hunter College,695 Park Ave,New York,NY,10065,New York County,40.768669,-73.964795
190600,CUNY John Jay College of Criminal Justice,524 W 59th St,New York,NY,10019,New York County,40.770351,-73.98841
190619,CUNY Kingsborough Community College,2001 Oriental Blvd,Brooklyn,NY,11235,Kings County,40.577222,-73.935812
190628,CUNY LaGuardia Community College,31-10 Thomson Ave,Long Island City,NY,11101,Queens County,40.7445,-73.935057
190637,CUNY Lehman College,250 Bedford Park Blvd West,Bronx,NY,10468,Bronx County,40.872962,-73.895379
190646,CUNY Medgar Evers College,1650 Bedford Ave,Brooklyn,NY,11225,Kings County,40.666256,-73.957076
190655,CUNY New York City College of Technology,300 Jay St,Brooklyn,NY,11201,Kings County,40.695483,-73.987856
190664,CUNY Queens College,65-30 Kissena Blvd,Queens,NY,11367,Queens County,40.735182,-73.816098
190673,CUNY Queensborough Community College,222-05 56th Ave,Bayside,NY,11364-1497,Queens County,40.755481,-73.756656
190682,CUNY School of Law,2 Court Square,Long Island City,NY,11101,Queens County,40.747797,-73.943621
190691,CUNY York College,94-20 Guy R. Brewer Blvd,Jamaica,NY,11451,Queens County,40.701576,-73.796313
191126,Fashion Institute of Technology,227 W 27th St,New York,NY,10001-5992,New York County,40.74731,-73.994781
191241,Fordham University,441 E Fordham Rd,Bronx,NY,10458,Bronx County,40.859354,-73.882705
191287,The International Culinary Center,462 Broadway,New York,NY,10013-2618,New York County,40.720817,-74.00009
191311,Gemological Institute of America-New York,"50 West 47th Street, 8th Floor",New York,NY,10036,New York County,40.757267,-73.980813
191320,The General Theological Seminary,440 West 21st Street,New York,NY,10011,New York County,40.745563,-74.00378
191597,Helene Fuld College of Nursing,24 East 120th Street,New York,NY,10035-2737,New York County,40.802495,-73.943356
192040,Jewish Theological Seminary of America,3080 Broadway,New York,NY,10027-4649,New York County,40.811892,-73.960582
192110,The Juilliard School,60 Lincoln Center Plaza,New York,NY,10023-6588,New York County,40.773725,-73.982913
192271,LIM College,12 E 53rd St,New York,NY,10022-5268,New York County,40.759865,-73.975054
192509,Long Island Business Institute,"136-18 39th Avenue, Fifth Floor",Flushing,NY,11354-5577,Queens County,40.760109,-73.829457
192624,Machzikei Hadath Rabbinical College,5407 16th Ave,Brooklyn,NY,11204-1805,Kings County,40.627937,-73.988378
192688,Mandl School-The College of Allied Health,254 W 54th St,New York,NY,10019-5516,New York County,40.764404,-73.983786
192712,Manhattan School of Music,130 Claremont Avenue,New York,NY,10027,New York County,40.812312,-73.961334
192864,Marymount Manhattan College,221 E 71st St,New York,NY,10021-4597,New York County,40.768787,-73.959767
192970,Memorial Hospital School of Radiation Therapy Technology,1275 York Ave,New York,NY,10065-6007,New York County,40.764128,-73.956143
193052,Mesivta Torah Vodaath Rabbinical Seminary,425 E 9th St,Brooklyn,NY,11218,Kings County,40.6382,-73.969395
193061,Mesivta of Eastern Parkway-Yeshiva Zichron Meilech,510 Dahill Rd,Brooklyn,NY,11218-5559,Kings County,40.635236,-73.979327
193070,Mesivtha Tifereth Jerusalem of America,145 E Broadway,New York,NY,10002-6301,New York County,40.713812,-73.991271
193247,Mirrer Yeshiva Cent Institute,1791-5 Ocean Parkway,Brooklyn,NY,11223-2010,Kings County,40.605043,-73.966049
193308,Monroe College,2501 Jerome Avenue,Bronx,NY,10468,Bronx County,40.864459,-73.900215
193399,College of Mount Saint Vincent,6301 Riverdale Ave,Bronx,NY,10471-1093,Bronx County,40.913657,-73.908887
193405,Icahn School of Medicine at Mount Sinai,"One Gustave L Levy Place, Box 1217",New York,NY,10029-6574,New York County,40.790063,-73.952812
193654,The New School,66 West 12th Street,New York,NY,10011-8871,New York County,40.735508,-73.997114
193821,New York Law School,185 West Broadway,New York,NY,10013-2921,New York County,40.717998,-74.006969
193858,New York School for Medical and Dental Assistants,33-10 Queens Blvd,Long Island City,NY,11101,Queens County,40.744291,-73.931391
193894,New York Theological Seminary,475 Riverside Dr  Ste 500,New York,NY,10115-0083,New York County,40.810869,-73.963793
193900,New York University,70 Washington Sq South,New York,NY,10012-1091,New York County,40.729452,-73.997264
194073,New York College of Podiatric Medicine,53 East 124 Street,New York,NY,10035-1940,New York County,40.805037,-73.940496
194116,New York School of Interior Design,170 East 70th Street,New York,NY,10021,New York County,40.768615,-73.962404
194161,Nyack College,2 Washington Street,New York,NY,10004,New York County,40.705756,-74.015628
194310,Pace University,1 Pace Plaza,New York,NY,10038-1598,New York County,40.711014,-74.004719
194499,Plaza College,118-33 Queens Boulevard,Forest Hills,NY,11375,Queens County,40.714894,-73.831156
194578,Pratt Institute-Main,200 Willoughby Ave,Brooklyn,NY,11205,Kings County,40.691297,-73.96431
19457801,Pratt Manhattan-A Division of Pratt Institute,144 West 14th Street,New York,NY,10011,New York County,40.737947,-73.998857
194657,Rabbinical Academy Mesivta Rabbi Chaim Berlin,1593 Coney Island Ave,Brooklyn,NY,11230,Kings County,40.618467,-73.963702
194666,Rabbinical College Bobover Yeshiva Bnei Zion,1577 48th St,Brooklyn,NY,11219,Kings County,40.631954,-73.985026
194736,Rabbinical College of Long Island,205 W Beach St,Long Beach,NY,11561,Nassau County,40.586427,-73.670238
194763,Rabbinical Seminary of America,76-01 147th St,Flushing,NY,11367,Queens County,40.72308,-73.817161
19476301,Rabbinical Seminary of America-Ma'yan HaTorah,113-25 Myrtle Ave,Richmond Hill,NY,11418,Queens County,40.70069,-73.836262
195049,Rockefeller University,1230 York Avenue,New York,NY,10065-6399,New York County,40.762489,-73.955198
195067,Empire Beauty School-Manhattan,22 W 34th St,New York,NY,10001,New York County,40.748938,-73.986453
195544,St. Joseph's College-New York,245 Clinton Ave,Brooklyn,NY,11205-3688,Kings County,40.690418,-73.967664
195784,St Paul's School of Nursing-Staten Island,"2 Teleport Drive, Corporate Commons Two, Suite 203",Staten Island,NY,10311,Richmond County,40.605584,-74.179757
195809,St John's University-New York,8000 Utopia Pky,Queens,NY,11439,Queens County,40.722523,-73.796104
19580901,Saint John's University - Staten Island Campus,300 Howard Avenue,Staten Island,NY,103014496,Richmond County,40.620945,-74.09186
196051,SUNY Morrisville,80 Eaton Street,Morrisville,NY,13408,Madison County,42.893962,-75.640583
196228,SUNY College of Optometry,33 West 42nd Street,New York,NY,10036-8003,New York County,40.754465,-73.982236
196255,SUNY Downstate Health Sciences University,450 Clarkson Ave,Brooklyn,NY,11203-2098,Kings County,40.653855,-73.945535
196389,Swedish Institute a College of Health Sciences,226 West 26th Street,New York,NY,10001-6700,New York County,40.746384,-73.99567
196431,Talmudical Seminary Oholei Torah,667 Eastern Pky,Brooklyn,NY,11213,Kings County,40.670089,-73.945759
196468,Teachers College at Columbia University,525 W 120th St,New York,NY,10027,New York County,40.810216,-73.960194
196583,Torah Temimah Talmudical Seminary,507 Ocean Parkway,Brooklyn,NY,11218,Kings County,40.63598,-73.971994
196592,Touro College,500 7th Avenue,New York,NY,10018,New York County,40.753199,-73.989404
196884,Union Theological Seminary in the City of New York,3041 Broadway,New York,NY,10027-5792,New York County,40.811823,-73.961549
197018,United Talmudical Seminary,191 Rodney St.,Brooklyn,NY,11211,Kings County,40.705687,-73.959113
197151,School of Visual Arts,209 E 23rd St,New York,NY,10010,New York County,40.738809,-73.982359
197197,Wagner College,One Campus Rd,Staten Island,NY,10301-4495,Richmond County,40.615588,-74.092913
197230,Wells College,170 Main Street,Aurora,NY,13026-0500,Cayuga County,42.742943,-76.696028
197601,Yeshiva Karlin Stolin,1818 54th St,Brooklyn,NY,11204-1545,Kings County,40.624918,-73.983373
197647,Yeshiva Derech Chaim,1573 39th Street,Brooklyn,NY,11218-0000,Kings County,40.636889,-73.979757
197692,Yeshiva Shaar Hatorah,117-06 84 Ave,Kew Gardens,NY,11418,Queens County,40.703795,-73.834252
197708,Yeshiva University,500 W 185th St,New York,NY,10033-3299,New York County,40.850605,-73.929873
197993,Bennett College,900 E Washington St,Greensboro,NC,27401-3239,Guilford County,36.067531,-79.77998
198011,Bladen Community College,7418 NC Hwy 41 West,Dublin,NC,28332,Bladen County,34.644691,-78.731119
198190,Carolina School of Broadcasting,3435 Performance Rd,Charlotte,NC,28214,Mecklenburg County,35.255857,-80.983976
198260,Central Piedmont Community College,1201 Elizabeth Avenue,Charlotte,NC,28204,Mecklenburg County,35.217774,-80.829796
198330,Coastal Carolina Community College,444 Western Blvd,Jacksonville,NC,28546-6816,Onslow County,34.771687,-77.384785
198419,Duke University,103 Allen Bldg,Durham,NC,27708,Durham County,36.001135,-78.937624
198455,Durham Technical Community College,1637 Lawson Street,Durham,NC,27703-5023,Durham County,35.974768,-78.8817
198570,Gaston College,201 Hwy 321 S,Dallas,NC,28034,Gaston County,35.312048,-81.18852
19857001,Gaston College,201 Highway 321 South,Dallas,NC,280341499,Gaston County,35.308179,-81.191731
198598,Greensboro College,815 W Market St,Greensboro,NC,27401-1875,Guilford County,36.071082,-79.800232
198613,Guilford College,5800 W Friendly Avenue,Greensboro,NC,27410-4108,Guilford County,36.094233,-79.887737
198756,Johnson C Smith University,100 Beatties Ford Road,Charlotte,NC,28216-5398,Mecklenburg County,35.243033,-80.857251
198844,Leons Beauty School Inc,1305 Coliseum BLVD,Greensboro,NC,27403,Guilford County,36.057646,-79.8228
198950,Meredith College,3800 Hillsborough St,Raleigh,NC,27607-5298,Wake County,35.799351,-78.689995
199102,North Carolina A & T State University,1601 E Market  St,Greensboro,NC,27411,Guilford County,36.07282,-79.773375
199120,University of North Carolina at Chapel Hill,103 South Bldg Cb 9100,Chapel Hill,NC,27599,Orange County,35.911769,-79.050969
199139,University of North Carolina at Charlotte,9201 University City Blvd,Charlotte,NC,28223-0001,Mecklenburg County,35.306022,-80.730919
199148,University of North Carolina at Greensboro,1400 Spring Garden St,Greensboro,NC,27402-6170,Guilford County,36.068236,-79.809414
199157,North Carolina Central University,1801 Fayetteville Street,Durham,NC,27707,Durham County,35.974237,-78.898602
199175,University of North Carolina System,910 Raleigh Rd,Chapel Hill,NC,27514,Orange County,35.908783,-79.029687
199193,North Carolina State University at Raleigh,2101 Hillsborough Street,Raleigh,NC,27695-7001,Wake County,35.785111,-78.674517
199272,William Peace University,15 E Peace St,Raleigh,NC,27604-1194,Wake County,35.789139,-78.637697
199412,Queens University of Charlotte,1900 Selwyn Ave,Charlotte,NC,28274-0001,Mecklenburg County,35.189051,-80.833509
199582,Saint Augustine's University,1315 Oakwood Avenue,Raleigh,NC,27610-2298,Wake County,35.785468,-78.621301
199643,Shaw University,118 East South Street,Raleigh,NC,27601,Wake County,35.771181,-78.637693
199670,Sherrill's University of Barber & Cosmetology,3601 Bastion Ln,Raleigh,NC,27604,Wake County,35.79744,-78.585797
199838,Vance-Granville Community College,200 Community College Road,Henderson,NC,27537,Vance County,36.323887,-78.487651
199856,Wake Technical Community College,9101 Fayetteville Road,Raleigh,NC,27603-5696,Wake County,35.650151,-78.706126
199883,Watts School of Nursing,2828 Croadsaile Drive Suite 200,Durham,NC,27705-2505,Durham County,36.027649,-78.9413
19998001,Winston - Salem Barber School - Satellite,1700 Stanley Road Suite E,Greensboro,NC,274072754,Guilford County,36.052842,-79.890991
200624,The Art Institute of Cincinnati-AIC College of Design,1171 East Kemper Road,Cincinnati,OH,45246-3322,Hamilton County,39.285831,-84.451296
201016,Antonelli College-Cincinnati,124 E Seventh St,Cincinnati,OH,45202,Hamilton County,39.104312,-84.510735
201061,Art Academy of Cincinnati,1212 Jackson Street,Cincinnati,OH,45202-1706,Hamilton County,39.108805,-84.513913
201140,Athenaeum of Ohio,6616 Beechmont Ave,Cincinnati,OH,45230-2091,Hamilton County,39.082926,-84.371927
20146903,Bryant & Stratton College-Cleveland,3121 Euclid Avenue,Cleveland,OH,441152798,Cuyahoga County,41.50314,-81.666201
201548,Capital University,1 College and Main,Columbus,OH,43209-2394,Franklin County,39.954875,-82.937867
201645,Case Western Reserve University,10900 Euclid Ave,Cleveland,OH,44106,Cuyahoga County,41.507419,-81.609596
201672,Central Ohio Technical College,1179 University Drive,Newark,OH,43055-1767,Licking County,40.069314,-82.447441
201821,The Christ College of Nursing and Health Sciences,2139 Auburn Avenue,Cincinnati,OH,45219-2989,Hamilton County,39.121821,-84.509564
201858,Cincinnati Christian University,2700 Glenway Ave,Cincinnati,OH,45204-3200,Hamilton County,39.114169,-84.55408
201867,Cincinnati College of Mortuary Science,645 W North Bend Rd,Cincinnati,OH,45224-1462,Hamilton County,39.206578,-84.505604
201885,University of Cincinnati-Main Campus,2624 Clifton Avenue,Cincinnati,OH,45221-0063,Hamilton County,39.131159,-84.51428
201928,Cincinnati State Technical and Community College,3520 Central Parkway,Cincinnati,OH,45223-2690,Hamilton County,39.149915,-84.536936
202046,Cleveland Institute of Art,11610 Euclid Avenue,Cleveland,OH,44106-1710,Cuyahoga County,41.510435,-81.602416
202073,Cleveland Institute of Music,11021 East Blvd,Cleveland,OH,44106-1776,Cuyahoga County,41.512444,-81.608878
202134,Cleveland State University,2121 Euclid Avenue,Cleveland,OH,44115-2214,Cuyahoga County,41.502281,-81.674355
202161,Bradford School,2469 Stelzer Road,Columbus,OH,43219,Franklin County,40.023538,-82.911808
202170,Columbus College of Art and Design,60 Cleveland Ave.,Columbus,OH,43215,Franklin County,39.966074,-82.989479
202222,Columbus State Community College,550 E Spring St,Columbus,OH,43215,Franklin County,39.96887,-82.98766
202356,Cuyahoga Community College District,700 Carnegie Ave,Cleveland,OH,44115-2878,Cuyahoga County,41.494906,-81.683533
202435,Davis College,4747 Monroe St,Toledo,OH,43623,Lucas County,41.692513,-83.629753
202684,Bryant & Stratton College-Cleveland,3121 Euclid Avenue,Cleveland,OH,44115,Cuyahoga County,41.503009,-81.666136
202806,Franklin University,201 S Grant Ave,Columbus,OH,43215-5399,Franklin County,39.95831,-82.990375
202903,Gods Bible School and College,1810 Young Street,Cincinnati,OH,45202-6838,Hamilton County,39.1153,-84.505703
202912,Good Samaritan College of Nursing and Health Science,375 Dixmyth Ave,Cincinnati,OH,45220-2489,Hamilton County,39.140348,-84.521196
202949,Great Oaks Career Campuses,303 Scarlet Oaks Dr.,Cincinnati,OH,45241,Hamilton County,39.289951,-84.413556
203030,Adult and Community Education-Hudson,2323 Lexington Avenue,Columbus,OH,43211,Franklin County,40.012851,-82.980603
203067,Hebrew Union College-Jewish Institute of Religion,One W 4th St,New York,NY,10012-1186,New York County,40.728938,-73.994499
20306701,Hebrew Union College-Jewish Institute of Religion-Cincinnati,3101 Clifton Ave,Cincinnati,OH,452203796,Hamilton County,39.138095,-84.520699
20306702,Hebrew Union College-Jewish Institute of Religion-Los Angeles,3077 University Ave,Los Angeles,CA,900073796,Los Angeles County,34.025604,-118.282911
203234,Ross Medical Education Center-Cincinnati,"11590 Century Boulevard, Suite 210",Cincinnati,OH,45246,Hamilton County,39.286023,-84.452851
203386,Hondros College of Nursing,4140 Executive Parkway,Westerville,OH,43081,Franklin County,40.084407,-82.901039
203960,Mercy College of Ohio,2221 Madison Avenue,Toledo,OH,43604-1132,Lucas County,41.658319,-83.552538
204121,Moler Hollywood Beauty Academy,6142 Montgomery Rd,Cincinnati,OH,45213,Hamilton County,39.182803,-84.425549
204176,Mount Carmel College of Nursing,127 So.  Davis Ave,Columbus,OH,43222-1504,Franklin County,39.956625,-83.021501
204200,Mount Saint Joseph University,5701 Delhi Rd,Cincinnati,OH,45233-1670,Hamilton County,39.095893,-84.639453
204459,Toledo Public Schools Adult and Continuing Education,3281 UPTON AVENUE,Toledo,OH,43613,Lucas County,41.682287,-83.590926
204468,Notre Dame College,4545 College Rd,Cleveland,OH,44121-4293,Cuyahoga County,41.506894,-81.516617
204608,Ohio Technical College,1374 E 51st St,Cleveland,OH,44103,Cuyahoga County,41.518038,-81.656868
204617,Ohio Dominican University,1216 Sunbury Road,Columbus,OH,43219,Franklin County,39.992764,-82.940689
204705,Ohio State University-Newark Campus,1179 University Dr,Newark,OH,43055,Licking County,40.069314,-82.447441
204723,Ohio State College of Barber Styling,4614 E Broad St,Columbus,OH,43213,Franklin County,39.977375,-82.877144
204769,The Spa School,5050 N High,Columbus,OH,43214,Franklin County,40.065397,-83.018081
204796,Ohio State University-Main Campus,190 N. Oval Mall,Columbus,OH,43210,Franklin County,39.999324,-83.014853
204936,Otterbein University,1 South Grove Street,Westerville,OH,43081,Franklin County,40.125327,-82.936444
205027,Pontifical College Josephinum,7625 N High Street,Columbus,OH,43235-1499,Franklin County,40.120735,-83.018829
205054,Professional Skills Institute,1505 Holland Road,Maumee,OH,43537,Lucas County,41.584008,-83.672408
205559,Hussian College-Daymar College Columbus,2745 Winchester Pike,Columbus,OH,43232,Franklin County,39.91594,-82.916201
205887,Stautzenberger College-Maumee,1796 Indian Wood Circle,Maumee,OH,43537-4007,Lucas County,41.582662,-83.683042
206084,University of Toledo,2801 W Bancroft,Toledo,OH,43606-3390,Lucas County,41.660572,-83.614714
206279,Union Institute & University,440 E McMillan St,Cincinnati,OH,45206-1925,Hamilton County,39.126921,-84.500166
20627901,Los Angeles Center,6701 Center Drive West #1200,Los Angeles,CA,900451746,Los Angeles County,33.97892,-118.393751
20627903,Sacramento Center,"160 Promenade Circle, Suite 115",Sacramento,CA,958341746,Sacramento County,38.636468,-121.500459
206622,Xavier University,3800 Victory Parkway,Cincinnati,OH,45207-1092,Hamilton County,39.149547,-84.47465
206932,Central Oklahoma College,14820 Serenita Avenue,Oklahoma City,OK,73134,Oklahoma County,35.621488,-97.560235
206941,University of Central Oklahoma,100 N University Dr,Edmond,OK,73034,Oklahoma County,35.6552,-97.471508
207157,Randall University,3701 S. I-35 Frontage Road,Moore,OK,73160,Cleveland County,35.300757,-97.491107
207254,Spartan College of Aeronautics and Technology,8820 East Pine Street,Tulsa,OK,74115,Tulsa County,36.176642,-95.878902
207290,Northeastern Oklahoma A&M College,200 I St NE,Miami,OK,74354,Ottawa County,36.877255,-94.867248
207315,Oklahoma State University Center for Health Sciences,1111 W 17th St,Tulsa,OK,74107-1898,Tulsa County,36.137977,-96.005702
207324,Oklahoma Christian University,2501 E Memorial Rd,Edmond,OK,73013,Oklahoma County,35.611412,-97.469526
207342,University of Oklahoma-Health Sciences Center,1105 Stonewall Avenue,Oklahoma City,OK,73117-1221,Oklahoma County,35.47928,-97.496289
207397,Oklahoma State University-Oklahoma City,900 N Portland,Oklahoma City,OK,73107-6195,Oklahoma County,35.474969,-97.581959
207449,Oklahoma City Community College,7777 S May Ave,Oklahoma City,OK,73159-9987,Oklahoma County,35.387699,-97.570109
207458,Oklahoma City University,2501 N Blackwelder,Oklahoma City,OK,73106-1402,Oklahoma County,35.495271,-97.541242
207582,Oral Roberts University,7777 S Lewis Ave.,Tulsa,OK,74171,Tulsa County,36.049129,-95.952547
207935,Tulsa Community College,6111 E Skelly Dr,Tulsa,OK,74135-6198,Tulsa County,36.106788,-95.90825
207962,Tulsa Welding School-Tulsa,2545 E. 11th Street,Tulsa,OK,74104,Tulsa County,36.148202,-95.954378
207971,University of Tulsa,800 South Tucker Drive,Tulsa,OK,74104-3189,Tulsa County,36.152324,-95.945941
208187,Paul Mitchell the School-Portland,234 SW Broadway,Portland,OR,97205,Multnomah County,45.52213,-122.677741
208415,Clatsop Community College,1651 Lexington Avenue,Astoria,OR,97103,Clatsop County,46.183107,-123.823339
208479,Concorde Career College-Portland,"1425 NE Irving Street, Bldg 300",Portland,OR,97232-4203,Multnomah County,45.528354,-122.650703
208488,Concordia University-Portland,2811 NE Holman Street,Portland,OR,97211-6099,Multnomah County,45.570197,-122.636941
208512,Sumner College,8338 NE Alderwood Road Ste 100,Portland,OR,97220,Multnomah County,45.574935,-122.576024
208637,East West College of the Healing Arts,"1515 SW Fifth Avenue, Suite 400",Portland,OR,97201-0000,Multnomah County,45.513392,-122.681029
209056,Lewis & Clark College,0615 S W Palatine Hill Rd,Portland,OR,97219-7899,Multnomah County,45.450882,-122.669137
209287,Multnomah University,8435 NE Glisan St,Portland,OR,97220,Multnomah County,45.527139,-122.575557
209296,National University of Natural Medicine,049 SW Porter Street,Portland,OR,97201-4848,Multnomah County,45.501931,-122.6766
209490,Oregon Health & Science University,3181 SW Sam Jackson Park Rd,Portland,OR,97239-3098,Multnomah County,45.498772,-122.686096
209533,Oregon College of Art and Craft,8245 SW Barnes Rd,Portland,OR,97225,Washington County,45.511121,-122.761912
209603,Pacific Northwest College of Art,511 NW Broadway,Portland,OR,97209-3404,Multnomah County,45.526766,-122.678182
209746,Portland Community College,12000 SW 49th Avenue,Portland,OR,97219-7132,Multnomah County,45.438154,-122.730876
209807,Portland State University,724 SW Harrison,Portland,OR,97201,Multnomah County,45.511601,-122.686289
209825,University of Portland,5000 N Willamette Blvd,Portland,OR,97203-5798,Multnomah County,45.572724,-122.726691
209922,Reed College,3203 SE Woodstock Blvd,Portland,OR,97202-8199,Multnomah County,45.480959,-122.630348
210304,Warner Pacific University,2219 SE 68th Ave,Portland,OR,97215,Multnomah County,45.506265,-122.592498
210368,Western Seminary,5511 SE Hawthorne Blvd,Portland,OR,97215-3367,Multnomah County,45.512091,-122.606374
210438,University of Western States,2900 NE 132nd Ave,Portland,OR,97230-3099,Multnomah County,45.543253,-122.525979
210508,Academy of Vocal Arts,1920 Spruce St,Philadelphia,PA,19103-6685,Philadelphia County,39.94796,-75.173735
210605,Community College of Allegheny County,800 Allegheny Ave,Pittsburgh,PA,15233-1895,Allegheny County,40.450908,-80.018453
21078401,The Beauty Institute,9902 E. Roosevelt Blvd,Philadelphia,PA,19115,Philadelphia County,40.09344,-75.019861
211130,Missio Theological Seminary,"421 N. 7th Street, Suite 700",Philadelphia,PA,19123,Philadelphia County,39.959026,-75.150056
211149,Bidwell Training Center Inc,1815 Metropolitan St,Pittsburgh,PA,15233,Allegheny County,40.457352,-80.032471
211431,Carlow University,3333 Fifth Ave,Pittsburgh,PA,15213-3165,Allegheny County,40.439293,-79.963448
211440,Carnegie Mellon University,5000 Forbes Avenue,Pittsburgh,PA,15213-3890,Allegheny County,40.44357,-79.941993
211556,Chatham University,"Woodland Road, Office of Institutional Research",Pittsburgh,PA,15232,Allegheny County,40.448432,-79.926083
211583,Chestnut Hill College,9601 Germantown Ave,Philadelphia,PA,19118-2693,Philadelphia County,40.08678,-75.228742
211893,Curtis Institute of Music,1726 Locust St,Philadelphia,PA,19103,Philadelphia County,39.948857,-75.170727
211909,Dean Institute of Technology,1501 W Liberty Ave,Pittsburgh,PA,15226-1197,Allegheny County,40.410325,-80.015343
212054,Drexel University,3141 Chestnut St,Philadelphia,PA,19104,Philadelphia County,39.955217,-75.190051
212106,Duquesne University,Administration Bldg 600 Forbes Ave,Pittsburgh,PA,15282,Allegheny County,40.43589,-79.993123
212452,Faith Theological Seminary,529 Walker Avenue,Baltimore,MD,21212-2624,Baltimore city,39.371639,-76.605906
212753,Empire Beauty School-NE Philadelphia,4026 Woodhaven Rd,Philadelphia,PA,19154,Philadelphia County,40.084983,-74.971093
212805,Grove City College,100 Campus Dr,Grove City,PA,16127-2104,Mercer County,41.1558,-80.081481
212984,Holy Family University,9801 Frankford Avenue,Philadelphia,PA,19114-2009,Philadelphia County,40.060581,-74.986451
212993,Hussian College School of Art,1500 Spring Garden Street   Ste. 101,Philadelphia,PA,19130,Philadelphia County,39.962505,-75.164185
213358,La Roche University,9000 Babcock Blvd,Pittsburgh,PA,15237-5898,Allegheny County,40.568615,-80.014851
213367,La Salle University,1900 W Olney Ave,Philadelphia,PA,19141-1199,Philadelphia County,40.037979,-75.153061
213589,Lincoln Technical Institute-Philadelphia,9191 Torresdale Ave,Philadelphia,PA,19136,Philadelphia County,40.049548,-74.999686
213622,St Margaret School of Nursing,"221 Seventh Street, Suite 100",Pittsburgh,PA,15238-3250,Allegheny County,40.491687,-79.863106
213914,Vet Tech Institute,125 Seventh St,Pittsburgh,PA,15222-3400,Allegheny County,40.443884,-80.000229
213932,Roxborough Memorial Hospital School of Nursing,5800 Ridge Ave,Philadelphia,PA,19128,Philadelphia County,40.028912,-75.209985
214023,The Workforce Institute's City College,4322 N. 5th Street,Philadelphia,PA,19140-2302,Philadelphia County,40.017493,-75.135042
214069,Misericordia University,301 Lake St,Dallas,PA,18612-1098,Luzerne County,41.345277,-75.971541
214148,Moore College of Art and Design,20th and the Parkway,Philadelphia,PA,19103-1179,Philadelphia County,39.957078,-75.172105
214528,Orleans Technical College,2770 Red Lion Road,Philadelphia,PA,19114-1014,Philadelphia County,40.090338,-75.011324
214883,Peirce College,1420 Pine Street,Philadelphia,PA,19102-4699,Philadelphia County,39.945483,-75.166332
214971,Pennsylvania Academy of the Fine Arts,128 N. Broad Street,Philadelphia,PA,19102-1510,Philadelphia County,39.955692,-75.163456
215008,Pennsylvania Gunsmith School,812 Ohio River Blvd,Pittsburgh,PA,15202-2637,Allegheny County,40.496621,-80.068694
215062,University of Pennsylvania,34th & Spruce Street,Philadelphia,PA,19104-6303,Philadelphia County,39.950929,-75.19391
215105,The University of the Arts,320 South Broad St,Philadelphia,PA,19102-4901,Philadelphia County,39.946017,-75.165888
215123,Philadelphia College of Osteopathic Medicine,4170 City Ave,Philadelphia,PA,19131,Philadelphia County,40.004885,-75.216092
215132,University of the Sciences,600 South 43rd Street,Philadelphia,PA,19104-4495,Philadelphia County,39.946412,-75.207001
215239,Community College of Philadelphia,1700 Spring Garden St,Philadelphia,PA,19130-3991,Philadelphia County,39.962458,-75.165604
215293,University of Pittsburgh-Pittsburgh Campus,4200 Fifth Avenue,Pittsburgh,PA,15260,Allegheny County,40.444388,-79.953254
215390,Pittsburgh Institute of Mortuary Science Inc,5808 Baum Blvd,Pittsburgh,PA,15206-3706,Allegheny County,40.459175,-79.930487
215424,Pittsburgh Theological Seminary,616 N Highland Ave,Pittsburgh,PA,15206-2596,Allegheny County,40.467347,-79.921397
